Well Name,Receipt,Permit,COGCC API,Log Date,Log Type,Log Top,Log Bottom,Aquifer Picks,Well Depth,Top Perforated Casing,Bottom Perforated Casing,Base Of Grout,WDID,Location Number,DIV,WD,County,Designated Basin,Management District,Q10,Q40,Q160,Section,Township,Range,PM,CoordsEW,CoordsEW Dir,CoordsNS,CoordsNS Dir,UTM x,UTM y,Latitude,Longitude,Location Accuracy,Elevation,Elevation Accuracy,Modified,More Information,Location
FRONT RANGE BRS-OB-09,10045944,341420-,,11/12/2025,"GR,RES,SP,NMR,DEN,NE",,635,,,,,71,,SB00906605AC,1,1,WELD,,,,SW,NE,5,9.0 N,66.0 W,S,,,,,516808.0,4514198.0,40.778597,-104.800822,User supplied,5364.00,USGS 3DEP,12/16/2025 04:50:00 PM,https://dwr.state.co.us/Tools/GroundWater/GeophysicalLogs/157823,"(40.778597, -104.800822)"
FRONT RANGE BRS-OB-08,10045674,341222-,,11/12/2025,"GR,RES,SP,BMR,DEN,NE",,728,,,,,139,,SB01006629AA,1,1,WELD,,,,NW,NE,29,10.0 N,66.0 W,S,,,,,516824.0,4517840.0,40.811405,-104.800534,User supplied,5486.00,USGS 3DEP,12/16/2025 02:42:00 PM,https://dwr.state.co.us/Tools/GroundWater/GeophysicalLogs/157822,"(40.811405, -104.800534)"
IONE 2,,,,,,,,LARAMIE-FOX HILLS,,,,,,SB00206602BC,1,2,WELD,,,,SW,NW,2,2.0 N,66.0 W,S,,,,,521155.7,4446515.9,40.168750,-104.751556,Spotted from quarters,5049.00,,,https://dwr.state.co.us/Tools/GroundWater/GeophysicalLogs/2009,"(40.16875, -104.751556)"
5 WHITE 120-19,,,,,,,,"CHEYENNE SANDSTONE, DAKOTA SANDSTONE",,,,,,SC01504119BC,1,49,CHEYENNE,,,,SW,NW,19,15.0 S,41.0 W,S,,,,,,,,,Unable to spot,3938.00,,12/04/2018 04:34:00 PM,https://dwr.state.co.us/Tools/GroundWater/GeophysicalLogs/152450,
MCCRORY #1,,,12307160,,,,,LARAMIE-FOX HILLS,,,,,,SB00706432AD,1,1,WELD,,,,SE,NE,32,7.0 N,64.0 W,S,,,,,536641.8,4486995.2,40.532893,-104.567363,GPS,4815.00,,09/06/2023 12:00:00 PM,https://dwr.state.co.us/Tools/GroundWater/GeophysicalLogs/156403,"(40.532893, -104.567363)"
KING,,,,,",SP,R,",,384,DENVER,,,,,,SC00406915DD,1,8,JEFFERSON,,,,SE,SE,15,4.0 S,69.0 W,S,,,,,491992.6,4394283.8,39.698372,-105.093408,Spotted from quarters,5560.00,,,https://dwr.state.co.us/Tools/GroundWater/GeophysicalLogs/4047,"(39.698372, -105.093408)"
CRYSTAL 23-1,,,,,",SP,R,C,",,1020,,,,,,,SB00306223AA,1,1,WELD,LOST CREEK,,,NE,NE,23,3.0 N,62.0 W,S,,,,,560929.1,4452015.3,40.216349,-104.283956,Spotted from quarters,4645.00,,,https://dwr.state.co.us/Tools/GroundWater/GeophysicalLogs/2147,"(40.216349, -104.283956)"
SAXON,,,,,,,,LARAMIE-FOX HILLS,,,,,,SB00206620DB,1,2,WELD,,,,NW,SE,20,2.0 N,66.0 W,S,,,,,517141.1,4441297.9,40.121829,-104.798842,Spotted from quarters,4904.00,,,https://dwr.state.co.us/Tools/GroundWater/GeophysicalLogs/2032,"(40.121829, -104.798842)"
NELSON B UNIT 1,,,,,,,,LARAMIE-FOX HILLS,,,,,,SB00206706AC,1,5,WELD,,,,SW,NE,6,2.0 N,67.0 W,S,,,,,505890.8,4446565.7,40.169444,-104.930827,Spotted from quarters,4848.00,,,https://dwr.state.co.us/Tools/GroundWater/GeophysicalLogs/2061,"(40.169444, -104.930827)"
WERNER,,,,,",SP,R,G,",,560,"LOWER DAWSON, UPPER DAWSON",,,,,,SC00606507AA,1,8,DOUGLAS,,,,NE,NE,7,6.0 S,65.0 W,S,,,,,525706.6,4377767.7,39.549208,-104.700812,Spotted from quarters,6160.00,,,https://dwr.state.co.us/Tools/GroundWater/GeophysicalLogs/4574,"(39.549208, -104.700812)"
SB00506702,,,,,",SP,R,",,800,,,,,,,SB00506702,1,3,WELD,,,,SW,NE,2,5.0 N,67.0 W,S,,,,,511823.4,4475345.7,40.428669,-104.860622,Spotted from quarters,,,,https://dwr.state.co.us/Tools/GroundWater/GeophysicalLogs/2407,"(40.428669, -104.860622)"
STATE 2-1,,,12307145,,,,,LARAMIE-FOX HILLS,,,,,,SB00306302AA,1,1,WELD,LOST CREEK,,,NE,NE,2,3.0 N,63.0 W,S,660,E,660,N,551224.0,4456717.2,40.259355,-104.397631,Spotted from section lines,4728.00,,09/08/2015 04:23:00 PM,https://dwr.state.co.us/Tools/GroundWater/GeophysicalLogs/2157,"(40.259355, -104.397631)"
GASH 1118,,,,,",SP,R,C,",,1800,"ARAPAHOE, LARAMIE-FOX HILLS, LOWER ARAPAHOE, UPPER ARAPAHOE",,,,,,SC00606118BC,1,1,ELBERT,KIOWA-BIJOU,,,NW,NW,18,6.0 S,61.0 W,S,600,W,720,N,562637.8,4376147.2,39.532705,-104.271145,Spotted from section lines,5697.00,,09/28/2006 02:00:00 PM,https://dwr.state.co.us/Tools/GroundWater/GeophysicalLogs/4480,"(39.532705, -104.271145)"
AMOCO CORE HOLE 127,,,,,",SP,R,G,",,500,"ARAPAHOE, UPPER ARAPAHOE",,,,,,SC00306227CC,1,1,ADAMS,KIOWA-BIJOU,NORTH KIOWA-BIJOU,,SW,SW,27,3.0 S,62.0 W,S,,,,,558337.5,4400723.5,39.754435,-104.319015,Spotted from quarters,5335.00,,,https://dwr.state.co.us/Tools/GroundWater/GeophysicalLogs/3491,"(39.754435, -104.319015)"
AMOCO CORE HOLE 135,,,,,",SP,R,G,",,500,,,,,,,SC00306331CC,1,1,ADAMS,LOST CREEK,LOST CREEK,,SW,SW,31,3.0 S,63.0 W,S,,,,,543940.9,4399019.1,39.739943,-104.487178,Spotted from quarters,5580.00,,,https://dwr.state.co.us/Tools/GroundWater/GeophysicalLogs/3570,"(39.739943, -104.487178)"
KPU D08,,,12313773,01/18/1988,,,6918,"ALLUVIAL, LARAMIE-FOX HILLS, PIERRE SHALE, UPPER PIERRE",6910.00,,,,,SB00506402DD,1,1,WELD,,,,SW,SE,2,5.0 N,64.0 W,S,,,,,541122.8,4474852.7,40.423298,-104.515243,GPS,4607.00,,10/12/2016 01:57:00 PM,https://dwr.state.co.us/Tools/GroundWater/GeophysicalLogs/150826,"(40.423298, -104.515243)"
YOCAM 8-35,,,,,,,,LARAMIE-FOX HILLS,,,,,,SB00306135AD,1,1,WELD,KIOWA-BIJOU,NORTH KIOWA-BIJOU,,SE,NE,35,3.0 N,61.0 W,S,664,E,1822,N,570563.1,4448604.3,40.184862,-104.171121,Spotted from section lines,4626.00,,12/01/2006 01:34:00 PM,https://dwr.state.co.us/Tools/GroundWater/GeophysicalLogs/2134,"(40.184862, -104.171121)"
BELTZ 1A,,,,,,,,LARAMIE-FOX HILLS,,,,,,SC00106310AA,1,1,ADAMS,LOST CREEK,LOST CREEK,,NE,NE,10,1.0 S,63.0 W,S,660,E,660,N,549778.4,4426026.7,39.982951,-104.417001,Spotted from section lines,5007.00,,10/08/2007 08:56:00 AM,https://dwr.state.co.us/Tools/GroundWater/GeophysicalLogs/2528,"(39.982951, -104.417001)"
PRICE-STATE 1,,,,,,,,LARAMIE-FOX HILLS,,,,,,SB00405918BD,1,1,MORGAN,,,,SE,NW,18,4.0 N,59.0 W,S,1915,W,1965,N,582479.3,4463104.8,40.314402,-104.029299,Spotted from section lines,4457.00,,12/01/2006 01:34:00 PM,https://dwr.state.co.us/Tools/GroundWater/GeophysicalLogs/2273,"(40.314402, -104.029299)"
FRAZEE 1-3,,,,,,,,"CHEYENNE SANDSTONE, DAKOTA SANDSTONE",,,,,,SC01905003DC,2,67,KIOWA,,,,SW,SE,3,19.0 S,50.0 W,S,,,,,675028.6,4255168.3,38.427646,-102.994851,Spotted from quarters,4326.00,,01/30/2019 02:23:00 PM,https://dwr.state.co.us/Tools/GroundWater/GeophysicalLogs/152658,"(38.427646, -102.994851)"
KPU D03,,,12310006,07/24/1980,,,4572,"ALLUVIAL, LARAMIE-FOX HILLS, PIERRE SHALE, UPPER PIERRE",4571.00,,,,,SB00606635BB,1,3,WELD,,,,NW,NW,35,6.0 N,66.0 W,S,,,,,521064.4,4477678.2,40.449499,-104.751606,GPS,4676.00,,10/12/2016 09:51:00 AM,https://dwr.state.co.us/Tools/GroundWater/GeophysicalLogs/150821,"(40.449499, -104.751606)"
PACHYDERM DA-1,0364090A,43154-F,,,",G,SP,R,Ca,",,690,"DENVER, LOWER DAWSON, UPPER DAWSON",680.00,452,660,,0809823,SC00606519DB DWR1,1,8,DOUGLAS,,,,NW,SE,19,6.0 S,65.0 W,S,,,,,525267.7,4373733.8,39.512874,-104.706074,Spotted from quarters,6180.00,,,https://dwr.state.co.us/Tools/GroundWater/GeophysicalLogs/4587,"(39.512874, -104.706074)"
ELIZABETH SCHOOL,0371961B,44121-F,,05/11/1995,",SP,G,R,",,1010,"DENVER, LOWER DAWSON, UPPER DAWSON",1010.00,710,980,,,SC00806512DA DWR1,1,1,ELBERT,,,,NE,SE,12,8.0 S,65.0 W,S,1175,E,2400,S,533508.4,4357693.4,39.368057,-104.611022,Spotted from section lines,6460.00,,,https://dwr.state.co.us/Tools/GroundWater/GeophysicalLogs/4958,"(39.368057, -104.611022)"
SILLS 1,,,,,,,,"DENVER, LARAMIE-FOX HILLS",,,,,,SC00206615BC,1,2,ADAMS,,,,SW,NW,15,2.0 S,66.0 W,S,660,W,1980,N,519715.9,4414467.2,39.880034,-104.769438,Spotted from section lines,5241.00,,09/28/2006 02:00:00 PM,https://dwr.state.co.us/Tools/GroundWater/GeophysicalLogs/3229,"(39.880034, -104.769438)"
UPRR-PRICE,,,,,,,,LARAMIE-FOX HILLS,,,,,,SC00305933DD,1,1,ADAMS,KIOWA-BIJOU,NORTH KIOWA-BIJOU,,SE,SE,33,3.0 S,59.0 W,S,600,E,600,S,586961.2,4399610.0,39.741963,-103.985070,Spotted from section lines,4992.00,,09/28/2006 02:00:00 PM,https://dwr.state.co.us/Tools/GroundWater/GeophysicalLogs/3378,"(39.741963, -103.98507)"
VETTER 12-32,,,,,,,,LARAMIE-FOX HILLS,,,,,,SC00106432BC,1,1,ADAMS,,,,SW,NW,32,1.0 S,64.0 W,S,660,W,1980,N,535788.3,4419215.8,39.922295,-104.581224,Spotted from section lines,5192.00,,09/28/2006 02:00:00 PM,https://dwr.state.co.us/Tools/GroundWater/GeophysicalLogs/2607,"(39.922295, -104.581224)"
GOLGART 9-21,,,12315659,,,,,"LARAMIE SHALE, LARAMIE-FOX HILLS, PIERRE SHALE, UPPER PIERRE",,,,,,SB00906409BA,1,1,WELD,,,,NE,NW,9,9.0 N,64.0 W,S,,,,,537538.0,4512953.0,40.766696,-104.555234,GPS,5270.00,,10/17/2019 04:58:00 PM,https://dwr.state.co.us/Tools/GroundWater/GeophysicalLogs/152997,"(40.766696, -104.555234)"
OWL CREEK 27,,,12312435,,,,,UPPER PIERRE,,,,,,SB00706501DD,1,1,WELD,,,,SE,SE,1,7.0 N,65.0 W,S,660,E,660,S,533555.7,4494015.0,40.596264,-104.603427,Spotted from section lines,4948.00,,10/17/2018 06:13:00 PM,https://dwr.state.co.us/Tools/GroundWater/GeophysicalLogs/152318,"(40.596264, -104.603427)"
CHAMP 512 AMOCO 1,,,,,,,,"ARAPAHOE, LARAMIE-FOX HILLS, LOWER ARAPAHOE, UPPER ARAPAHOE",,,,,,SC00306321DA,1,1,ADAMS,LOST CREEK,LOST CREEK,,NE,SE,21,3.0 S,63.0 W,S,660,E,1980,S,548344.8,4402671.2,39.772607,-104.435512,Spotted from section lines,5447.00,,12/01/2006 01:34:00 PM,https://dwr.state.co.us/Tools/GroundWater/GeophysicalLogs/3545,"(39.772607, -104.435512)"
KPU I16,,,12308309,02/23/1975,,,6418,"LARAMIE-FOX HILLS, PIERRE SHALE, UPPER PIERRE",6414.00,,,,,SB00805824DB,1,64,WELD,,,,NW,SE,24,8.0 N,58.0 W,S,,,,,600719.8,4500100.4,40.645619,-103.808781,GPS,4737.00,,10/19/2016 03:28:00 PM,https://dwr.state.co.us/Tools/GroundWater/GeophysicalLogs/150928,"(40.645619, -103.808781)"
BURNS TEST 1,,,,,",G,SP,R,",,1600,"ARAPAHOE, DENVER, LARAMIE-FOX HILLS, LOWER ARAPAHOE, UPPER ARAPAHOE",,,,,,SC00606830CD,1,8,DOUGLAS,,,,SE,SW,30,6.0 S,68.0 W,S,,,,,495897.2,4371656.1,39.494515,-105.047725,Spotted from quarters,5680.00,,,https://dwr.state.co.us/Tools/GroundWater/GeophysicalLogs/4729,"(39.494515, -105.047725)"
ROCKY MT FUEL CO D-1,,,12307508,,,,,LARAMIE-FOX HILLS,,,,,,SB00206719DA,1,2,WELD,,,,NE,SE,19,2.0 N,67.0 W,S,1008,E,2390,S,506158.5,4441428.7,40.123163,-104.927738,Spotted from section lines,4967.00,,03/07/2017 02:28:00 PM,https://dwr.state.co.us/Tools/GroundWater/GeophysicalLogs/2073,"(40.123163, -104.927738)"
STATE OF COLORADO 1,,,04106041,,,,,LARAMIE-FOX HILLS,,,,,,SC01306011BD,2,17,EL PASO,,,,SE,NW,11,13.0 S,60.0 W,S,,,,,579430.0,4310030.0,38.935612,-104.083555,GPS,6109.00,,05/22/2019 12:48:00 PM,https://dwr.state.co.us/Tools/GroundWater/GeophysicalLogs/152892,"(38.935612, -104.083555)"
STANLEY 2,,,,,,,,LARAMIE-FOX HILLS,,,,,,SC00106802BD,1,2,ADAMS,,,,SE,NW,2,1.0 S,68.0 W,S,2020,W,1707,N,502465.4,4427281.1,39.995712,-104.971134,Spotted from section lines,5136.00,,09/28/2006 02:00:00 PM,https://dwr.state.co.us/Tools/GroundWater/GeophysicalLogs/2819,"(39.995712, -104.971134)"
KPU I20,,,12305775,10/14/1958,,,6719,"LARAMIE-FOX HILLS, PIERRE SHALE, UPPER PIERRE, WHITE RIVER",6705.00,,,,,SB01005814AC,1,64,WELD,,,,SW,NE,14,10.0 N,58.0 W,S,,,,,598517.2,4521743.5,40.840828,-103.831423,GPS,4895.00,,10/19/2016 03:30:00 PM,https://dwr.state.co.us/Tools/GroundWater/GeophysicalLogs/150931,"(40.840828, -103.831423)"
ECCV W&S SL-1,0470416B,55692-F,,07/26/2001,"SP,R,G,Ca.D",,2397,"ARAPAHOE, DENVER, LARAMIE-FOX HILLS, LOWER ARAPAHOE, LOWER DAWSON, UPPER ARAPAHOE",2352.00,1900,2332,,0808552,SC00506620BC,1,8,ARAPAHOE,,,,SW,NW,20,5.0 S,66.0 W,S,1106,W,1710,N,516592.9,4383899.2,39.604678,-104.806731,Spotted from section lines,5685.00,,11/23/2001 12:00:00 AM,https://dwr.state.co.us/Tools/GroundWater/GeophysicalLogs/5452,"(39.604678, -104.806731)"
1 ETTER,,,,,,,,"CHEYENNE SANDSTONE, DAKOTA SANDSTONE",,,,,,SC02304118BC,2,67,PROWERS,,,,SW,NW,18,23.0 S,41.0 W,S,,,,,756249.8,4215563.6,38.051572,-102.079618,Spotted from quarters,3354.00,,01/31/2019 09:50:00 AM,https://dwr.state.co.us/Tools/GroundWater/GeophysicalLogs/152807,"(38.051572, -102.079618)"
ACADEMY HILLS 1,,,,,",SP,R,",,753,"ARAPAHOE, LARAMIE-FOX HILLS, LOWER ARAPAHOE, UPPER ARAPAHOE",,,,,,SC01306617AA,2,10,EL PASO,,,,NE,NE,17,13.0 S,66.0 W,S,,,,,517683.6,4308339.9,38.923802,-104.796010,Spotted from quarters,6380.00,,,https://dwr.state.co.us/Tools/GroundWater/GeophysicalLogs/5272,"(38.923802, -104.79601)"
SCHILLINGER,0398796,46411-F,,,",G,R.SP,",,1065,"DENVER, LOWER DAWSON, UPPER DAWSON",1065.00,876,1065,,,SC00706520CC DWR1,1,8,DOUGLAS,,,,SW,SW,20,7.0 S,65.0 W,S,1100,W,400,S,526142.0,4363568.0,39.421249,-104.696302,Spotted from section lines,6420.00,,,https://dwr.state.co.us/Tools/GroundWater/GeophysicalLogs/4825,"(39.421249, -104.696302)"
ECCV L-4,0042174A,17500-F,,03/11/1998,"GR, RES, SP",,2415,"DENVER, LARAMIE-FOX HILLS, LOWER ARAPAHOE, LOWER DAWSON, UPPER ARAPAHOE",2410.00,2032,2320,2002,,SC00506623DC,1,8,ARAPAHOE,,,,SW,SE,23,5.0 S,66.0 W,S,2630,E,450,S,521918.8,4382962.6,39.596125,-104.744724,Spotted from section lines,5815.00,USGS 24k Topo Quad,10/19/2017 12:45:00 PM,https://dwr.state.co.us/Tools/GroundWater/GeophysicalLogs/152099,"(39.596125, -104.744724)"
GUTTERSEN RANCHES LLC WELL 7,10030019,88469-F,,11/18/2023,"GR,RES,SP",,512,LARAMIE-FOX HILLS,510.00,,,,,SB00306318BC,1,1,WELD,,,,SW,NW,18,3.0 N,63.0 W,S,,,,,543409.0,4453210.0,40.228202,-104.489767,User supplied,4763.00,USGS 3DEP,11/18/2023 04:02:00 PM,https://dwr.state.co.us/Tools/GroundWater/GeophysicalLogs/157458,"(40.228202, -104.489767)"
AMOCO CORE HOLE 181,,,,,",SP,R,",,500,"ARAPAHOE, LOWER ARAPAHOE, UPPER ARAPAHOE",,,,,,SC00406107CC,1,1,ARAPAHOE,KIOWA-BIJOU,NORTH KIOWA-BIJOU,,SW,SW,7,4.0 S,61.0 W,S,,,,,563155.7,4396011.0,39.711634,-104.263227,Spotted from quarters,5293.00,,,https://dwr.state.co.us/Tools/GroundWater/GeophysicalLogs/3785,"(39.711634, -104.263227)"
JESS OSBORNE 1,,,08705055,,,,,LARAMIE-FOX HILLS,,,,,,SB00105731BB,1,1,MORGAN,,,,NW,NW,31,1.0 N,57.0 W,S,660,W,660,N,601654.0,4429951.4,40.013650,-103.808898,Spotted from section lines,4671.00,,06/16/2008 02:40:00 PM,https://dwr.state.co.us/Tools/GroundWater/GeophysicalLogs/1423,"(40.01365, -103.808898)"
SARTI 24-10,,,,,",SP,R,C,",,2200,"ARAPAHOE, DENVER, LARAMIE-FOX HILLS, LOWER ARAPAHOE, UPPER ARAPAHOE",,,,,,SC00606324DB,1,1,ELBERT,KIOWA-BIJOU,,,NW,SE,24,6.0 S,63.0 W,S,1980,E,1980,S,552259.0,4373700.1,39.511352,-104.392102,Spotted from section lines,5925.00,,09/28/2006 02:00:00 PM,https://dwr.state.co.us/Tools/GroundWater/GeophysicalLogs/4547,"(39.511352, -104.392102)"
CLARY SAGE,0394761,46603-F,,05/30/1996,",SP,R,G,",,392,"LOWER DAWSON, UPPER DAWSON",392.00,212,392,,,SC00806717BB,1,8,DOUGLAS,,,,NW,NW,17,8.0 S,67.0 W,S,140,W,530,N,506635.2,4356886.2,39.361410,-104.922993,Spotted from section lines,6320.00,,,https://dwr.state.co.us/Tools/GroundWater/GeophysicalLogs/5004,"(39.36141, -104.922993)"
RICO 2,,,,,,,,LARAMIE-FOX HILLS,,,,,,SC00305932BC,1,1,ADAMS,KIOWA-BIJOU,NORTH KIOWA-BIJOU,,SW,NW,32,3.0 S,59.0 W,S,520,W,2120,N,584031.6,4400330.8,39.748752,-104.019158,Spotted from section lines,5025.00,,09/28/2006 02:00:00 PM,https://dwr.state.co.us/Tools/GroundWater/GeophysicalLogs/3377,"(39.748752, -104.019158)"
AIR ACADEMY 6A,,,,,",SP,R,",,225,,,,,,,SC01206736DD,2,10,EL PASO,,,,SE,SE,36,12.0 S,67.0 W,S,,,,,514435.4,4311946.3,38.956360,-104.833406,Spotted from quarters,6370.00,,,https://dwr.state.co.us/Tools/GroundWater/GeophysicalLogs/5237,"(38.95636, -104.833406)"
GREEN,0355269,42729-F,,05/27/1994,"SP,G,R",,730,"LOWER DAWSON, UPPER DAWSON",744.00,564,744,,,SC00606516CB,1,8,DOUGLAS,,,,NW,SW,16,6.0 S,65.0 W,S,,,,,527863.0,4375149.0,39.525545,-104.675824,GPS,6383.00,,05/23/2005 11:34:00 AM,https://dwr.state.co.us/Tools/GroundWater/GeophysicalLogs/13237,"(39.525545, -104.675824)"
BICKLER 1,,,12312529,,,,,LARAMIE-FOX HILLS,,,,,,SB00106834BC,1,2,WELD,,,,SW,NW,34,1.0 N,68.0 W,S,839,W,2135,N,500335.5,4428760.0,40.009041,-104.996073,Spotted from section lines,5205.00,,06/16/2008 03:13:00 PM,https://dwr.state.co.us/Tools/GroundWater/GeophysicalLogs/1803,"(40.009041, -104.996073)"
BOX ELDER A,,,,,,,,LARAMIE-FOX HILLS,,,,,,SC00206612AA,1,2,ADAMS,,,,NE,NE,12,2.0 S,66.0 W,S,600,E,860,N,524199.8,4416406.5,39.897397,-104.716927,Spotted from section lines,5297.00,,09/28/2006 02:00:00 PM,https://dwr.state.co.us/Tools/GroundWater/GeophysicalLogs/3226,"(39.897397, -104.716927)"
SHOENBURG 1,,,,,",SP,R,",,600,"DENVER, UPPER ARAPAHOE",,,,,,SC00206936DA,1,7,JEFFERSON,,,,NE,SE,36,2.0 S,69.0 W,S,,,,,495240.4,4409193.5,39.832735,-105.055633,Spotted from quarters,5335.00,,,https://dwr.state.co.us/Tools/GroundWater/GeophysicalLogs/3312,"(39.832735, -105.055633)"
UPRR BUTTLER 1,,,03905027,,,,,LARAMIE-FOX HILLS,,,,,,SC00705805AA,1,1,ELBERT,KIOWA-BIJOU,,,NE,NE,5,7.0 S,58.0 W,S,660,E,660,N,594567.7,4370041.8,39.474782,-103.900524,Spotted from section lines,5441.00,,08/18/2014 09:38:00 AM,https://dwr.state.co.us/Tools/GroundWater/GeophysicalLogs/4742,"(39.474782, -103.900524)"
SODERBERG,0513585 ,60137-F,,03/11/2004,"SP,G,R",,711,"DENVER, LOWER ARAPAHOE, UPPER ARAPAHOE",720.00,480,720,,,SC00106524BA,1,1,ADAMS,,,,NE,NW,24,1.0 S,65.0 W,S,,,,,532870.0,4422996.0,39.956470,-104.615179,GPS,5140.00,,05/19/2005 10:07:00 AM,https://dwr.state.co.us/Tools/GroundWater/GeophysicalLogs/13187,"(39.95647, -104.615179)"
MURPHY 18-16,,,,,,,,"ARAPAHOE, LOWER ARAPAHOE, UPPER ARAPAHOE",,,,,,SC00506318DD,1,1,ARAPAHOE,KIOWA-BIJOU,,,SE,SE,18,5.0 S,63.0 W,S,660,E,660,S,544990.5,4384524.7,39.609298,-104.475922,Spotted from section lines,5874.00,,09/28/2006 02:00:00 PM,https://dwr.state.co.us/Tools/GroundWater/GeophysicalLogs/4209,"(39.609298, -104.475922)"
KPU I13,,,12310371,08/28/1981,,,6460,"LARAMIE-FOX HILLS, PIERRE SHALE, UPPER PIERRE",6460.00,,,,,SB00705823BB,1,64,WELD,,,,NW,NW,23,7.0 N,58.0 W,S,,,,,598503.1,4491216.5,40.565869,-103.836385,GPS,4819.00,,10/19/2016 03:26:00 PM,https://dwr.state.co.us/Tools/GroundWater/GeophysicalLogs/150926,"(40.565869, -103.836385)"
CHAPMAN,3673049,79744-F,,04/14/2016,"GR, RES, SP",,577,"ALLUVIAL, ARAPAHOE, LARAMIE-FOX HILLS",579.00,408,558,388,,SC01406132CB,2,17,EL PASO,,,,NW,SW,32,14.0 S,61.0 W,S,,,,,564756.0,4293382.0,38.786807,-104.254416,GPS,6100.00,USGS 24k Topo Quad,01/04/2017 01:10:00 PM,https://dwr.state.co.us/Tools/GroundWater/GeophysicalLogs/150654,"(38.786807, -104.254416)"
YOXALL FARMS D 1,,,12310198,,,,,"ARAPAHOE, LOWER ARAPAHOE, UPPER ARAPAHOE",,,,,,SB00106721DC,1,2,WELD,,,,SW,SE,21,1.0 N,67.0 W,S,1980,E,660,S,509115.6,4431212.3,40.031084,-104.893167,Spotted from section lines,5006.00,,06/16/2008 02:57:00 PM,https://dwr.state.co.us/Tools/GroundWater/GeophysicalLogs/1703,"(40.031084, -104.893167)"
MARRS 1-3,,,,,,,,"ARAPAHOE, LOWER ARAPAHOE, UPPER ARAPAHOE",,,,,,SC00306203BB DWR1,1,1,ADAMS,KIOWA-BIJOU,NORTH KIOWA-BIJOU,,NW,NW,3,3.0 S,62.0 W,S,660,W,660,N,558359.9,4408392.3,39.823523,-104.318070,Spotted from section lines,5214.00,,09/28/2006 02:00:00 PM,https://dwr.state.co.us/Tools/GroundWater/GeophysicalLogs/3442,"(39.823523, -104.31807)"
SAGE PORT,0916410 ,15811-F,,,",G,R,",,1400,,,,,,0807446,SC00906733BB,1,8,DOUGLAS,,,,NW,NW,33,9.0 S,67.0 W,S,600,W,350,N,508403.8,4342380.8,39.230692,-104.902640,Spotted from section lines,6950.00,,06/01/2007 10:49:00 AM,https://dwr.state.co.us/Tools/GroundWater/GeophysicalLogs/5077,"(39.230692, -104.90264)"
BRNAK 32-10,,,12310916,,",SP,R,C,",,2150,"LARAMIE-FOX HILLS, LOWER ARAPAHOE",,,,,,SB00106410AC,1,1,WELD,LOST CREEK,LOST CREEK,,SW,NE,10,1.0 N,64.0 W,S,1980,E,2010,N,539710.9,4435383.8,40.067786,-104.534331,Spotted from section lines,5099.00,,06/16/2008 01:56:00 PM,https://dwr.state.co.us/Tools/GroundWater/GeophysicalLogs/1543,"(40.067786, -104.534331)"
DAVIS 1,,,,,",SP,R,",,223,,,,,,,SC00406825DA,1,8,DENVER,,,,NE,SE,25,4.0 S,68.0 W,S,,,,,504892.6,4391457.5,39.672930,-104.942964,Spotted from quarters,5410.00,,,https://dwr.state.co.us/Tools/GroundWater/GeophysicalLogs/4033,"(39.67293, -104.942964)"
STATE 5,,,12305024,,",SP,R,C,",,2200,LARAMIE-FOX HILLS,,,,,,SB00206336CC,1,1,WELD,LOST CREEK,LOST CREEK,,SW,SW,36,2.0 N,63.0 W,S,660,W,660,S,551736.5,4437856.9,40.089413,-104.393114,Spotted from section lines,4806.00,,07/16/2008 04:38:00 PM,https://dwr.state.co.us/Tools/GroundWater/GeophysicalLogs/1941,"(40.089413, -104.393114)"
AURORA DA-2R,,58185-F,,11/08/2002,"G,SP,R,Ca.C",,1623,"ARAPAHOE, DENVER, LOWER ARAPAHOE, LOWER DAWSON, UPPER ARAPAHOE",,,,,,SC00506630AD,1,8,ARAPAHOE,,,,SE,NE,30,5.0 S,66.0 W,S,660,E,2580,N,516048.3,4382025.1,39.587803,-104.813125,Spotted from section lines,5655.00,,12/23/2002 12:00:00 AM,https://dwr.state.co.us/Tools/GroundWater/GeophysicalLogs/5578,"(39.587803, -104.813125)"
MITCHEM 42-26,,,,,",SP,R,C,",,1910,"ARAPAHOE, DENVER, LARAMIE-FOX HILLS, LOWER ARAPAHOE, UPPER ARAPAHOE",,,,,,SC00306326AC,1,1,ADAMS,KIOWA-BIJOU,NORTH KIOWA-BIJOU,,SE,NE,26,3.0 S,63.0 W,S,720,E,2040,N,551552.0,4401471.7,39.761617,-104.398161,Spotted from section lines,5404.00,,09/28/2006 02:00:00 PM,https://dwr.state.co.us/Tools/GroundWater/GeophysicalLogs/3561,"(39.761617, -104.398161)"
STATE 1-23,,,12310796,,,,,LARAMIE-FOX HILLS,,,,,,SB00406223DC,1,1,WELD,,,,SW,SE,23,4.0 N,62.0 W,S,1980,E,660,S,560377.9,4460439.2,40.292275,-104.289639,Spotted from section lines,4517.00,,12/11/2017 11:44:00 AM,https://dwr.state.co.us/Tools/GroundWater/GeophysicalLogs/2317,"(40.292275, -104.289639)"
LATIGO 13,,,,,",SP,R,C,D,",,750,"DAWSON, DENVER, LOWER DAWSON, UPPER DAWSON",,,,,,SC01206429CD,2,10,EL PASO,UPPER BLACK SQUIRREL CREEK,UPPER BLACK SQUIRREL,,SE,SW,29,12.0 S,64.0 W,S,,,,,536141.2,4313663.3,38.971206,-104.582806,Spotted from quarters,6970.00,,,https://dwr.state.co.us/Tools/GroundWater/GeophysicalLogs/5204,"(38.971206, -104.582806)"
DOLL 3,,,,,,,,LARAMIE-FOX HILLS,,,,,,SB00105835DB,1,1,MORGAN,,,,NE,NW,35,1.0 N,58.0 W,S,1920,W,690,N,598833.1,4429917.9,40.013688,-103.841951,Spotted from section lines,4750.00,,07/16/2008 03:07:00 PM,https://dwr.state.co.us/Tools/GroundWater/GeophysicalLogs/1438,"(40.013688, -103.841951)"
IDLER G 1,,,,,,,,"CHEYENNE SANDSTONE, DAKOTA SANDSTONE",,,,,,SC02304709BD,2,67,PROWERS,,,,SE,NW,9,23.0 S,47.0 W,S,,,,,701933.3,4215533.3,38.065048,-102.698131,Spotted from quarters,3687.00,,01/31/2019 10:06:00 AM,https://dwr.state.co.us/Tools/GroundWater/GeophysicalLogs/152827,"(38.065048, -102.698131)"
DB-104  ACWWA WELL A1,0419635,48779-F,,,",SP,G,R,Ca,C,",,1525,"ARAPAHOE, DENVER, LOWER ARAPAHOE, LOWER DAWSON, UPPER ARAPAHOE",1510.00,1100,1504,,0805294,SC00506723DB,1,8,ARAPAHOE,,,,NW,SE,23,5.0 S,67.0 W,S,1980,E,1805,S,512443.9,4383371.0,39.599991,-104.855069,Spotted from section lines,5640.00,,04/23/2015 01:40:00 PM,https://dwr.state.co.us/Tools/GroundWater/GeophysicalLogs/4357,"(39.599991, -104.855069)"
CALCO-BAIAMONTE #4,,,12305434,,,,,UPPER PIERRE,,,,,,SB00706606BD,1,3,WELD,,,,SE,NW,6,7.0 N,66.0 W,S,2419,W,1905,N,514971.6,4494980.1,40.605503,-104.823038,Spotted from section lines,5097.00,,08/17/2018 08:50:00 AM,https://dwr.state.co.us/Tools/GroundWater/GeophysicalLogs/152276,"(40.605503, -104.823038)"
THORNTON 36-13,,,,,,,,LARAMIE-FOX HILLS,,,,,,SC00406336CC DWR2,1,1,ARAPAHOE,KIOWA-BIJOU,NORTH KIOWA-BIJOU,,SW,SW,36,4.0 S,63.0 W,S,660,W,660,S,551909.3,4389406.2,39.652883,-104.394944,Spotted from section lines,5692.00,,12/01/2006 01:34:00 PM,https://dwr.state.co.us/Tools/GroundWater/GeophysicalLogs/3913,"(39.652883, -104.394944)"
WS-22,9119922,13450-F,,,,,,,1504.00,0,1504,,,SC00209721BDA,6,43,RIO BLANCO,,,NE,SE,NW,21,2.0 S,97.0 W,S,,,,,218721.6,4417778.2,39.863453,-108.288352,GPS,6511.60,USGS NED 10-meter DEM,09/20/2018 10:49:00 AM,https://dwr.state.co.us/Tools/GroundWater/GeophysicalLogs/27,"(39.863453, -108.288352)"
MARGUERITE TOTEMS UNIT 1,,,12307900,,,,,"ARAPAHOE, LOWER ARAPAHOE, UPPER ARAPAHOE",,,,,,SB00106720CC,1,2,WELD,,,,SW,SW,20,1.0 N,67.0 W,S,990,W,990,S,506800.7,4431307.3,40.031962,-104.920298,Spotted from section lines,5117.00,,06/16/2008 02:57:00 PM,https://dwr.state.co.us/Tools/GroundWater/GeophysicalLogs/1700,"(40.031962, -104.920298)"
KUNAU 79909-F,3674362,79909-F,,07/11/2016,"GR, RES, SP",,1229,"ALLUVIAL, ARAPAHOE, DENVER, LARAMIE-FOX HILLS",1230.00,970,1230,970,1706611,SC01306122CB,2,17,EL PASO,,,,NW,SW,22,13.0 S,61.0 W,S,424,W,2143,S,567632.1,4306298.8,38.902983,-104.220035,Spotted from section lines,6510.00,USGS 24k Topo Quad,01/02/2019 04:11:00 PM,https://dwr.state.co.us/Tools/GroundWater/GeophysicalLogs/151028,"(38.902983, -104.220035)"
UPRR 43 PAN AM I 6,,,12308665,,,,,LARAMIE-FOX HILLS,,,,,,SB00106811BA,1,5,WELD,,,,NE,NW,11,1.0 N,68.0 W,S,1980,W,860,N,502308.9,4435601.1,40.070674,-104.972932,Spotted from section lines,5016.00,,06/16/2008 03:09:00 PM,https://dwr.state.co.us/Tools/GroundWater/GeophysicalLogs/1770,"(40.070674, -104.972932)"
CLARK 13-18,,,,,",SP,R,C,",,2100,"ARAPAHOE, DENVER, LARAMIE-FOX HILLS, LOWER ARAPAHOE, UPPER ARAPAHOE",,,,,,SC00606218CB,1,1,ELBERT,KIOWA-BIJOU,,,NW,SW,18,6.0 S,62.0 W,S,660,W,1980,S,553054.4,4375310.2,39.525809,-104.382726,Spotted from section lines,5880.00,,09/28/2006 02:00:00 PM,https://dwr.state.co.us/Tools/GroundWater/GeophysicalLogs/4516,"(39.525809, -104.382726)"
JOHN 2,,,,,,,,LARAMIE-FOX HILLS,,,,,,SC00206029AA,1,1,ADAMS,KIOWA-BIJOU,NORTH KIOWA-BIJOU,,NE,NE,29,2.0 S,60.0 W,S,330,E,330,N,575757.3,4412033.9,39.854961,-104.114384,Spotted from section lines,4953.00,,09/28/2006 02:00:00 PM,https://dwr.state.co.us/Tools/GroundWater/GeophysicalLogs/2964,"(39.854961, -104.114384)"
PORECCO 1,,,00506277,,,,,LARAMIE-FOX HILLS,,,,,,SC00506126BD,1,1,ARAPAHOE,KIOWA-BIJOU,NORTH KIOWA-BIJOU,,SE,NW,26,5.0 S,61.0 W,S,1980,W,1980,N,569887.3,4382445.4,39.588888,-104.186140,Spotted from section lines,5452.00,,02/02/2016 01:34:00 PM,https://dwr.state.co.us/Tools/GroundWater/GeophysicalLogs/4121,"(39.588888, -104.18614)"
ASPER 1,,,04105055,,",SP,R,C,",,2250,"ARAPAHOE, LARAMIE-FOX HILLS, LOWER ARAPAHOE, UPPER ARAPAHOE",,,,,,SC01106021DD,2,67,EL PASO,UPPER BIG SANDY,UPPER BIG SANDY,,SE,SE,21,11.0 S,60.0 W,S,660,E,660,S,576936.8,4325203.3,39.072548,-104.110606,Spotted from section lines,6485.00,,09/10/2013 03:07:00 PM,https://dwr.state.co.us/Tools/GroundWater/GeophysicalLogs/5110,"(39.072548, -104.110606)"
SW INSTRUMENT CO,,,,,,,,"CHEYENNE SANDSTONE, DAKOTA SANDSTONE",,,,,,SC02004314BB,2,67,KIOWA,NORTHERN HIGH PLAINS,,,NW,NW,14,20.0 S,43.0 W,S,,,,,743705.2,4245499.9,38.324521,-102.212165,Spotted from quarters,4005.00,,01/30/2019 02:33:00 PM,https://dwr.state.co.us/Tools/GroundWater/GeophysicalLogs/152673,"(38.324521, -102.212165)"
STATE 14-22,,,,,",SP,R,C,",,1950,"ARAPAHOE, LARAMIE-FOX HILLS, LOWER ARAPAHOE",,,,,,SC00406214BD,1,1,ARAPAHOE,KIOWA-BIJOU,NORTH KIOWA-BIJOU,,SE,NW,14,4.0 S,62.0 W,S,1980,W,1980,N,560359.6,4395155.4,39.704125,-104.295918,Spotted from section lines,5434.00,,09/28/2006 02:00:00 PM,https://dwr.state.co.us/Tools/GroundWater/GeophysicalLogs/3828,"(39.704125, -104.295918)"
DM & H CATTLE,9002999,25744-F,,,",SP,G,R,",,1350,"ARAPAHOE, LARAMIE-FOX HILLS, LOWER ARAPAHOE",1355.00,,,,,SC00206712BA,1,2,ADAMS,,,,NE,NW,12,2.0 S,67.0 W,S,2550,W,200,N,513893.0,4416575.5,39.899142,-104.837491,Spotted from section lines,5105.00,,,https://dwr.state.co.us/Tools/GroundWater/GeophysicalLogs/3250,"(39.899142, -104.837491)"
STATE 8-10,,,,,,,,LARAMIE-FOX HILLS,,,,,,SC00206208DB,1,1,ADAMS,KIOWA-BIJOU,,,NW,SE,8,2.0 S,62.0 W,S,1650,E,1650,S,556066.5,4415539.9,39.888077,-104.344261,Spotted from section lines,5186.00,,09/28/2006 02:00:00 PM,https://dwr.state.co.us/Tools/GroundWater/GeophysicalLogs/3005,"(39.888077, -104.344261)"
1 KING,,,09906117,,,,,"CHEYENNE SANDSTONE, DAKOTA SANDSTONE",,,,,,SC02204235AA,2,67,PROWERS,,,,NE,NE,35,22.0 S,42.0 W,S,,,,,754051.3,4220726.2,38.098662,-102.102810,Spotted from quarters,3505.00,,11/13/2020 02:46:00 PM,https://dwr.state.co.us/Tools/GroundWater/GeophysicalLogs/152756,"(38.098662, -102.10281)"
STATE 1-10,,,,,",SP,R,C,",,2480,"ARAPAHOE, DENVER, LARAMIE-FOX HILLS, LOWER ARAPAHOE, LOWER DAWSON, UPPER ARAPAHOE",,,,,,SC00506510DD,1,2,ARAPAHOE,,,,SE,SE,10,5.0 S,65.0 W,S,660,E,660,S,530542.8,4386266.7,39.625631,-104.644131,Spotted from section lines,5858.00,,09/28/2006 02:00:00 PM,https://dwr.state.co.us/Tools/GroundWater/GeophysicalLogs/4260,"(39.625631, -104.644131)"
HEATHER RIDGE 4,9006137,15106-F,,,",SP,R,",,2070,LARAMIE-FOX HILLS,2265.00,,,,0206058,SC00406725DC DWR2,1,2,ARAPAHOE,,,,SW,SE,25,4.0 S,67.0 W,S,,,,,514109.6,4391081.0,39.669435,-104.835504,Spotted from quarters,5640.00,,,https://dwr.state.co.us/Tools/GroundWater/GeophysicalLogs/4022,"(39.669435, -104.835504)"
SPACE VILLAGE PARTNERS LLC,0531097B,62050-F,,11/05/2006,",SP,G,R,",,1252,"ARAPAHOE, DAWSON, DENVER",1560.00,1070,1560,,,SC01306405BC,2,10,EL PASO,UPPER BLACK SQUIRREL CREEK,UPPER BLACK SQUIRREL,,NW,NW,5,13.0 S,64.0 W,S,498,W,1500,N,535697.0,4311410.0,38.950919,-104.588050,GPS,6898.00,,12/04/2006 01:30:00 PM,https://dwr.state.co.us/Tools/GroundWater/GeophysicalLogs/49446,"(38.950919, -104.58805)"
LINNEBUR 1,,,,,",SP,R,C,",,1900,LARAMIE-FOX HILLS,,,,,,SC00306006D,1,1,ADAMS,KIOWA-BIJOU,NORTH KIOWA-BIJOU,,SW,SE,6,3.0 S,60.0 W,S,1980,E,660,S,573660.0,4407438.3,39.813740,-104.139413,Spotted from section lines,4964.00,,09/28/2006 02:00:00 PM,https://dwr.state.co.us/Tools/GroundWater/GeophysicalLogs/3384,"(39.81374, -104.139413)"
TOWN OF CASTLE ROCK A-13,0518929C,60652-F,,06/30/2004,"SP,G,R,CA,C",,1851,"ARAPAHOE, DENVER, LOWER DAWSON",1817.00,1371,1775,,0806920,SC00706734BB,1,8,DOUGLAS,,,,NW,NW,34,7.0 S,67.0 W,S,,,,,510131.0,4361848.0,39.406087,-104.882337,GPS,6116.00,,05/23/2005 10:30:00 AM,https://dwr.state.co.us/Tools/GroundWater/GeophysicalLogs/13224,"(39.406087, -104.882337)"
HYLAND HILLS PARKS & REC LFH-2,,60336-F,,12/11/2003,"SP,G,R,CA",,1521,"DENVER, LARAMIE-FOX HILLS, LOWER ARAPAHOE, UPPER ARAPAHOE",1520.00,,,,,SC00206818DB,1,2,ADAMS,,,,NW,SE,18,2.0 S,68.0 W,S,,,,,496246.0,4414038.0,39.876389,-105.043910,GPS,5418.00,,05/23/2005 01:43:00 PM,https://dwr.state.co.us/Tools/GroundWater/GeophysicalLogs/13262,"(39.876389, -105.04391)"
CHERRY HILLS RESORT,9006540 ,25036-F,,,",SP,R,C,",,1890,"ARAPAHOE, LARAMIE-FOX HILLS, LOWER ARAPAHOE, UPPER ARAPAHOE",1885.00,1634,1880,,,SC00506801BB,1,8,ARAPAHOE,,,,NW,NW,1,5.0 S,68.0 W,S,,,,,503680.0,4389058.1,39.651316,-104.957116,Spotted from quarters,5455.00,,,https://dwr.state.co.us/Tools/GroundWater/GeophysicalLogs/4388,"(39.651316, -104.957116)"
SARGENT IRRIGATION 53118-MH,0053118,53118-MH,,12/04/2014,"RES, CAL, GR",,911,,,,,,,SB00206410CC,1,1,WELD,,,,SW,SW,10,2.0 N,64.0 W,S,,,,,538645.0,4444403.0,40.149091,-104.546291,GPS,4960.00,,05/04/2015 11:52:00 AM,https://dwr.state.co.us/Tools/GroundWater/GeophysicalLogs/150607,"(40.149091, -104.546291)"
FEDERAL 1,,,,,,,,"CHEYENNE SANDSTONE, DAKOTA SANDSTONE",,,,,,SC02004625CA,2,67,KIOWA,,,,NE,SW,25,20.0 S,46.0 W,S,,,,,716875.0,4240508.7,38.286473,-102.520335,Spotted from quarters,3747.00,,01/30/2019 02:43:00 PM,https://dwr.state.co.us/Tools/GroundWater/GeophysicalLogs/152687,"(38.286473, -102.520335)"
LATIGO C,,,,,",SP,R,C,D,",,850,"DAWSON, DENVER, LOWER DAWSON, UPPER DAWSON",,,,,,SC01206524BB,2,10,EL PASO,UPPER BLACK SQUIRREL CREEK,UPPER BLACK SQUIRREL,,NW,NW,24,12.0 S,65.0 W,S,,,,,532573.2,4316499.2,38.996901,-104.623857,Spotted from quarters,7360.00,,,https://dwr.state.co.us/Tools/GroundWater/GeophysicalLogs/5213,"(38.996901, -104.623857)"
CHAMP 117 AMOCO G-4,,,,,,,,"ARAPAHOE, LOWER ARAPAHOE, UPPER ARAPAHOE",,,,,,SC00106635CC DWR1,1,2,ADAMS,,,,SW,SW,35,1.0 S,66.0 W,S,660,W,660,S,521371.4,4418477.0,39.916123,-104.749952,Spotted from section lines,5160.00,,12/01/2006 01:34:00 PM,https://dwr.state.co.us/Tools/GroundWater/GeophysicalLogs/2724,"(39.916123, -104.749952)"
THOMPSON,0390592 ,45560-F,,10/31/1995,",G,SP,R,",,300,,300.00,220,300,,,SC01106608BD,1,8,EL PASO,,,,SE,NW,8,11.0 S,66.0 W,S,2480,W,2330,N,516937.9,4328789.4,39.108089,-104.804104,Spotted from section lines,7420.00,,,https://dwr.state.co.us/Tools/GroundWater/GeophysicalLogs/5128,"(39.108089, -104.804104)"
KEEN 12-28,,,,,,,,"ARAPAHOE, LARAMIE-FOX HILLS, LOWER ARAPAHOE, UPPER ARAPAHOE",,,,,,SC00306128CB,1,1,ADAMS,KIOWA-BIJOU,NORTH KIOWA-BIJOU,,NW,SW,28,3.0 S,61.0 W,S,520,W,1840,S,566305.1,4401242.0,39.758524,-104.225962,Spotted from section lines,5120.00,,09/28/2006 02:00:00 PM,https://dwr.state.co.us/Tools/GroundWater/GeophysicalLogs/3427,"(39.758524, -104.225962)"
WARNICK,10030428,88566-F,,04/11/2024,"GR,RES,SP",,296,UPPER DAWSON,720.00,,,,,SC00706636BB,1,8,DOUGLAS,,,,NW,NW,36,7.0 S,66.0 W,S,,,,,522689.0,4361561.0,39.403262,-104.736485,User supplied,6325.00,USGS 3DEP,04/22/2024 11:28:00 AM,https://dwr.state.co.us/Tools/GroundWater/GeophysicalLogs/157507,"(39.403262, -104.736485)"
CERVI LFH-1,10024079,87596-F,,12/11/2022,"GR,RES,SP",,542,,545.00,,,,,SB00306303AC,1,1,WELD,LOST CREEK,,,SW,NE,3,3.0 N,63.0 W,S,3876,W,2967,S,549376.0,4456232.0,40.255096,-104.419399,User supplied,4793.00,USGS 3DEP,05/04/2023 02:41:00 PM,https://dwr.state.co.us/Tools/GroundWater/GeophysicalLogs/155328,"(40.255096, -104.419399)"
LUNDGREN 1-18,,,,,",R,",,1380,"ARAPAHOE, DENVER, LOWER ARAPAHOE, UPPER ARAPAHOE",,,,,,SC00306218CD,1,1,ADAMS,KIOWA-BIJOU,NORTH KIOWA-BIJOU,,SE,SW,18,3.0 S,62.0 W,S,1980,W,660,S,553974.4,4403917.2,39.783495,-104.369686,Spotted from section lines,5382.00,,09/28/2006 02:00:00 PM,https://dwr.state.co.us/Tools/GroundWater/GeophysicalLogs/3474,"(39.783495, -104.369686)"
DAVIDSON 1,,,,,,,,"ARAPAHOE, LARAMIE-FOX HILLS, LOWER ARAPAHOE, UPPER ARAPAHOE",,,,,,SC00306614AC DWR1,1,2,DENVER,,,,SW,NE,14,3.0 S,66.0 W,S,1980,E,1980,N,522134.1,4404792.0,39.792803,-104.741487,Spotted from section lines,5417.00,,09/28/2006 02:00:00 PM,https://dwr.state.co.us/Tools/GroundWater/GeophysicalLogs/3677,"(39.792803, -104.741487)"
NELSON PIPELINE,0497545 ,58471-F,,12/20/2002,"SP,R,G",,726,LARAMIE-FOX HILLS,726.00,520,726,,,SB00106702AC DWR2,1,2,WELD,,,,SW,NE,2,1.0 N,67.0 W,S,1822,E,1900,N,512334.6,4436884.8,40.082155,-104.855330,Spotted from section lines,4960.00,,04/11/2003 12:00:00 AM,https://dwr.state.co.us/Tools/GroundWater/GeophysicalLogs/5632,"(40.082155, -104.85533)"
UPRR 42 PAN AM UNIT M 1,,,12308153,,,,,"ARAPAHOE, LOWER ARAPAHOE, UPPER ARAPAHOE",,,,,,SB00106715AC,1,2,WELD,,,,SW,NE,15,1.0 N,67.0 W,S,1540,E,1650,N,510843.8,4433720.1,40.053660,-104.872872,Spotted from section lines,5040.00,,06/16/2008 02:55:00 PM,https://dwr.state.co.us/Tools/GroundWater/GeophysicalLogs/1683,"(40.05366, -104.872872)"
CORE HOLE K-11,,,,,LITH,,200,,,,,,,SB00306508C,1,2,WELD,,,,SE,SW,8,3.0 N,65.0 W,S,,,,,526198.7,4454020.8,40.236222,-104.692025,Spotted from quarters,4910.00,,01/24/2018 10:44:00 AM,https://dwr.state.co.us/Tools/GroundWater/GeophysicalLogs/2193,"(40.236222, -104.692025)"
CHERRY CK. SCHOOL,,20002-F,,,",G,",,1650,,,,,,,SC00506710BD,1,8,ARAPAHOE,,,,SE,NW,10,5.0 S,67.0 W,S,,,,,510458.1,4387043.0,39.633104,-104.878142,Spotted from quarters,,,,https://dwr.state.co.us/Tools/GroundWater/GeophysicalLogs/4343,"(39.633104, -104.878142)"
STEWART 10-11,,,,,",SP,R,C,N,D,G,",,2900,"ARAPAHOE, DENVER, LARAMIE-FOX HILLS, LOWER ARAPAHOE, UPPER ARAPAHOE",,,,,,SC00606310CA,1,1,ELBERT,KIOWA-BIJOU,,,NE,SW,10,6.0 S,63.0 W,S,1980,W,1780,S,548635.6,4376817.0,39.539649,-104.434017,Spotted from section lines,5860.00,,09/28/2006 02:00:00 PM,https://dwr.state.co.us/Tools/GroundWater/GeophysicalLogs/4534,"(39.539649, -104.434017)"
GORGES 21-32,,,12309257,,",SP,R,C,",,2025,LARAMIE-FOX HILLS,,,,,,SB00206232BA,1,1,WELD,LOST CREEK,LOST CREEK,,NE,NW,32,2.0 N,62.0 W,S,1980,W,660,N,555393.6,4439093.2,40.100316,-104.350113,Spotted from section lines,4783.00,,07/16/2008 02:56:00 PM,https://dwr.state.co.us/Tools/GroundWater/GeophysicalLogs/1909,"(40.100316, -104.350113)"
AMOCO CORE HOLE 250,,,,,",SP,R,G,",,500,"ARAPAHOE, UPPER ARAPAHOE",,,,,,SC00506203DC,1,1,ARAPAHOE,KIOWA-BIJOU,NORTH KIOWA-BIJOU,,SW,SE,3,5.0 S,62.0 W,S,,,,,559126.9,4387920.4,39.639030,-104.310948,Spotted from quarters,5579.00,,,https://dwr.state.co.us/Tools/GroundWater/GeophysicalLogs/4134,"(39.63903, -104.310948)"
CHAMP-VETTER 1,,,,,",SP,R,C,",,2100,"LARAMIE-FOX HILLS, LOWER ARAPAHOE, UPPER ARAPAHOE",,,,,,SC00106431AC,1,1,ADAMS,,,,SW,NE,31,1.0 S,64.0 W,S,1980,E,1980,N,534983.2,4419226.0,39.922419,-104.590643,Spotted from section lines,5221.00,,09/28/2006 02:00:00 PM,https://dwr.state.co.us/Tools/GroundWater/GeophysicalLogs/2605,"(39.922419, -104.590643)"
WELLS RANCH LFH-18,3655493R,77012-F,,03/21/2013,"G, R, SP",,278,"ALLUVIAL, LARAMIE-FOX HILLS",300.00,100,300,,,SB00606330BB,1,1,WELD,,,,NW,NW,30,6.0 N,62.0 W,S,,,,,553015.0,4479377.0,40.463380,-104.374687,User supplied,4753.00,,12/19/2017 02:26:00 PM,https://dwr.state.co.us/Tools/GroundWater/GeophysicalLogs/150458,"(40.46338, -104.374687)"
VEST 1,,,00106903,,,,,LARAMIE-FOX HILLS,,,,,,SC00206232CC,1,1,ADAMS,KIOWA-BIJOU,NORTH KIOWA-BIJOU,,SW,SW,32,2.0 S,62.0 W,S,660,W,660,S,555148.2,4408768.2,39.827125,-104.355569,Spotted from section lines,5266.00,,01/23/2019 11:46:00 AM,https://dwr.state.co.us/Tools/GroundWater/GeophysicalLogs/3048,"(39.827125, -104.355569)"
TIPPET 1A-18,,,,,,,,"ARAPAHOE, LARAMIE-FOX HILLS, LOWER ARAPAHOE, UPPER ARAPAHOE",,,,,,SC00306118CC,1,1,ADAMS,KIOWA-BIJOU,NORTH KIOWA-BIJOU,,SW,SW,18,3.0 S,61.0 W,S,660,W,660,S,563196.7,4404046.2,39.784022,-104.261973,Spotted from section lines,5118.00,,09/28/2006 02:00:00 PM,https://dwr.state.co.us/Tools/GroundWater/GeophysicalLogs/3420,"(39.784022, -104.261973)"
STROH RANCH,,29735-F,,,",N,SP,C,G,D,R,",,1820,"ARAPAHOE, DENVER, LOWER ARAPAHOE, LOWER DAWSON, UPPER ARAPAHOE, UPPER DAWSON",,,,,,SC00606634CA,1,8,DOUGLAS,,,,NE,SW,34,6.0 S,66.0 W,S,,,,,519985.4,4370496.5,39.483843,-104.767619,Spotted from quarters,5940.00,,,https://dwr.state.co.us/Tools/GroundWater/GeophysicalLogs/4642,"(39.483843, -104.767619)"
TEETS,0382813E,46061-F,,04/22/1996,",SP,G,R,",,350,"DENVER, LOWER DAWSON",360.00,200,360,,,SC00806718BB DWR1,1,8,DOUGLAS,,,,NW,NW,18,8.0 S,67.0 W,S,770,W,1140,N,505204.3,4356651.0,39.359302,-104.939605,Spotted from section lines,6160.00,,,https://dwr.state.co.us/Tools/GroundWater/GeophysicalLogs/5007,"(39.359302, -104.939605)"
WILD WIND REALTY #1,,36612-MH,,,",SP,R,G,",,1300,"ARAPAHOE, DENVER, LOWER ARAPAHOE, UPPER ARAPAHOE",,,,,,SC01306411AD,2,10,EL PASO,UPPER BLACK SQUIRREL CREEK,UPPER BLACK SQUIRREL,,SE,NE,11,13.0 S,64.0 W,S,660,E,1980,N,541773.1,4309600.0,38.934340,-104.518043,Spotted from section lines,6620.00,,12/11/2020 07:51:00 AM,https://dwr.state.co.us/Tools/GroundWater/GeophysicalLogs/5380,"(38.93434, -104.518043)"
AMOCO CORE HOLE 146,,,,,",SP,R,G,",,500,"ARAPAHOE, DENVER, UPPER ARAPAHOE",,,,,,SC00306235DD,1,1,ADAMS,KIOWA-BIJOU,NORTH KIOWA-BIJOU,,SE,SE,35,3.0 S,62.0 W,S,,,,,561162.4,4399197.3,39.740487,-104.286183,Spotted from quarters,5296.00,,,https://dwr.state.co.us/Tools/GroundWater/GeophysicalLogs/3502,"(39.740487, -104.286183)"
UPRR GEIB #1,,,12305532,,,,,"LARAMIE-FOX HILLS, PIERRE SHALE, UPPER PIERRE",,,,,,SB00806623DB,1,1,WELD,,,,NW,SE,23,8.0 N,66.0 W,S,,,,,521808.0,4499462.0,40.645728,-104.742081,GPS,5049.00,,04/11/2019 06:00:00 PM,https://dwr.state.co.us/Tools/GroundWater/GeophysicalLogs/152877,"(40.645728, -104.742081)"
WILLIAM D REED B-1,,,12309406,,,,,"LARAMIE-FOX HILLS, LOWER ARAPAHOE",,,,,,SB00106725CB,1,2,WELD,,,,NW,SW,25,1.0 N,67.0 W,S,660,W,1980,S,513134.7,4430014.0,40.020237,-104.846086,Spotted from section lines,4955.00,,06/16/2008 03:04:00 PM,https://dwr.state.co.us/Tools/GroundWater/GeophysicalLogs/1708,"(40.020237, -104.846086)"
FARMERS HIGHLINE 1,,,05905012,,,,,LARAMIE-FOX HILLS,,,,,,SC00306907BD,1,7,JEFFERSON,,,,SE,NW,7,3.0 S,69.0 W,S,2310,W,2210,N,486566.4,4406273.5,39.806328,-105.156949,Spotted from section lines,5544.00,,06/24/2021 10:11:00 AM,https://dwr.state.co.us/Tools/GroundWater/GeophysicalLogs/3729,"(39.806328, -105.156949)"
RANCHO LORRAINE,0254765A,28328-F,,05/15/1973,",R",,1530,"LARAMIE-FOX HILLS, LOWER ARAPAHOE, UPPER ARAPAHOE",635.00,525,635,,,SC00106634CC,1,2,ADAMS,,,,SW,SW,34,1.0 S,66.0 W,S,190,W,100,S,519610.1,4418300.7,39.914580,-104.770562,Spotted from section lines,5132.00,,05/27/2008 10:50:00 AM,https://dwr.state.co.us/Tools/GroundWater/GeophysicalLogs/149716,"(39.91458, -104.770562)"
LINNEBUR 2,,,12308290,,,,,"ARAPAHOE, LARAMIE-FOX HILLS, LOWER ARAPAHOE, UPPER ARAPAHOE",,,,,,SB00106232AD,1,1,WELD,LOST CREEK,LOST CREEK,,SE,NE,32,1.0 N,62.0 W,S,660,E,1980,N,556225.7,4429058.7,40.009863,-104.341223,Spotted from section lines,4891.00,,06/16/2008 01:35:00 PM,https://dwr.state.co.us/Tools/GroundWater/GeophysicalLogs/1504,"(40.009863, -104.341223)"
CHUCK #1,,,01707418,,,,,"CHEYENNE SANDSTONE, DAKOTA SANDSTONE",,,,,,SC01505026BD,2,67,CHEYENNE,,,,SE,NW,26,15.0 S,50.0 W,S,,,,,676311.0,4287047.0,38.714506,-102.972110,GPS,4434.00,,02/12/2020 09:12:00 AM,https://dwr.state.co.us/Tools/GroundWater/GeophysicalLogs/153049,"(38.714506, -102.97211)"
STOKER 1-22,,,,,,,,"CHEYENNE SANDSTONE, DAKOTA SANDSTONE",,,,,,SC01805122CD,2,17,KIOWA,,,,SE,SW,22,18.0 S,51.0 W,S,,,,,664801.4,4259718.2,38.470575,-103.110885,Spotted from quarters,4513.00,,01/30/2019 02:54:00 PM,https://dwr.state.co.us/Tools/GroundWater/GeophysicalLogs/152618,"(38.470575, -103.110885)"
CHAMP-GEESEN 1-5,,,03906091,,,,,LARAMIE-FOX HILLS,,,,,,SC00705905CC,1,1,ELBERT,KIOWA-BIJOU,,,SW,SW,5,7.0 S,59.0 W,S,660,W,660,S,583687.1,4368662.7,39.463486,-104.027186,Spotted from section lines,5636.00,,06/05/2024 11:57:00 AM,https://dwr.state.co.us/Tools/GroundWater/GeophysicalLogs/4746,"(39.463486, -104.027186)"
SABO 3,,,,,",SP,R,C,G,N,D,",,2250,"ARAPAHOE, DENVER, LARAMIE-FOX HILLS, LOWER ARAPAHOE, UPPER ARAPAHOE",,,,,,SC00606219BB,1,1,ELBERT,KIOWA-BIJOU,,,NW,NW,19,6.0 S,62.0 W,S,660,W,660,N,553061.7,4374505.5,39.518556,-104.382698,Spotted from section lines,5906.00,,10/16/2006 03:27:00 PM,https://dwr.state.co.us/Tools/GroundWater/GeophysicalLogs/4518,"(39.518556, -104.382698)"
ELEVATION WELL #1,3687306,310512-,,07/18/2019,"GR, RES, SP",,118,,120.00,,,50,,SB00106730AB,1,2,WELD,,,,NW,NE,30,1.0 N,67.0 W,S,2400,E,850,N,505786.0,4430743.0,40.026888,-104.932200,GPS,5100.00,USGS 24k Topo Quad,08/11/2021 04:01:00 PM,https://dwr.state.co.us/Tools/GroundWater/GeophysicalLogs/152982,"(40.026888, -104.9322)"
BEEK 1,0908952 ,68179-,,,",G,SP,R,",,830,"ARAPAHOE, LARAMIE-FOX HILLS, LOWER ARAPAHOE, UPPER ARAPAHOE",,,,,,SC01406427BA,2,10,EL PASO,,,,NE,NW,27,14.0 S,64.0 W,S,1920,W,1180,N,539367.2,4295377.4,38.806284,-104.546617,Spotted from section lines,6360.00,,10/17/2006 01:30:00 PM,https://dwr.state.co.us/Tools/GroundWater/GeophysicalLogs/5304,"(38.806284, -104.546617)"
CENTENNIAL A7-R,3625902 ,61428-F-R,,06/26/2008,".R,C,G,D",,1615,"ARAPAHOE, DENVER",1660.00,1190,1610,,0806982,SC00606825BC,1,8,DOUGLAS,,,,SW,NW,25,6.0 S,68.0 W,S,567,W,1496,N,503531.7,4372615.0,39.503157,-104.958928,Spotted from section lines,6107.00,,09/26/2008 11:20:00 AM,https://dwr.state.co.us/Tools/GroundWater/GeophysicalLogs/149754,"(39.503157, -104.958928)"
13-8 MORRIS,,,,,",SP,R,",,7750,"ARAPAHOE, DENVER, LARAMIE-FOX HILLS, LOWER ARAPAHOE, UPPER ARAPAHOE",,,,,,SC00606313AD,1,1,ELBERT,KIOWA-BIJOU,,,SE,NE,13,6.0 S,63.0 W,S,660,E,1980,N,552647.6,4375711.9,39.529456,-104.387418,Spotted from section lines,5854.00,,12/01/2006 01:34:00 PM,https://dwr.state.co.us/Tools/GroundWater/GeophysicalLogs/5350,"(39.529456, -104.387418)"
KPU G06,,,12313641,10/04/1987,,,6790,"ALLUVIAL, PIERRE SHALE, UPPER PIERRE",6765.00,,,,,SB00506330BC,1,1,WELD,,,,SW,NW,30,5.0 N,63.0 W,S,,,,,543607.7,4469180.9,40.372074,-104.486339,GPS,4580.00,,10/19/2016 01:00:00 PM,https://dwr.state.co.us/Tools/GroundWater/GeophysicalLogs/150891,"(40.372074, -104.486339)"
2 CAMPBELL 41-13,,,,,,,,"CHEYENNE SANDSTONE, DAKOTA SANDSTONE",,,,,,SC01304313AA,1,49,CHEYENNE,NORTHERN HIGH PLAINS,EAST CHEYENNE,,NE,NE,13,13.0 S,43.0 W,S,,,,,745478.1,4312583.0,38.927852,-102.168238,Spotted from quarters,3998.00,,11/30/2018 04:25:00 PM,https://dwr.state.co.us/Tools/GroundWater/GeophysicalLogs/152370,"(38.927852, -102.168238)"
TEST HOLES,,,,,",SP,R,C,",,,,,,,,,SB003059,1,,,,,,,,,3.0 N,59.0 W,S,,,,,,,,,,,,,https://dwr.state.co.us/Tools/GroundWater/GeophysicalLogs/2097,
CARDINAL CHRTR SCHL,0459374 ,54091-F,,08/25/2000,"SP,R,G",,760,"ARAPAHOE, LARAMIE-FOX HILLS, LOWER ARAPAHOE, UPPER ARAPAHOE",680.00,640,680,,,SB00106317DD,1,1,WELD,LOST CREEK,LOST CREEK,,SE,SE,17,1.0 N,63.0 W,S,95,E,65,S,546745.2,4432826.4,40.044379,-104.452033,Spotted from section lines,4890.00,,12/05/2000 12:00:00 AM,https://dwr.state.co.us/Tools/GroundWater/GeophysicalLogs/5507,"(40.044379, -104.452033)"
ORR 14-20,,,12309247,,,,,LARAMIE-FOX HILLS,,,,,,SB00406220CC,1,1,WELD,,,,SW,SW,20,4.0 N,62.0 W,S,660,W,660,S,554804.6,4460329.0,40.291668,-104.355213,Spotted from section lines,4599.00,,09/08/2015 03:30:00 PM,https://dwr.state.co.us/Tools/GroundWater/GeophysicalLogs/2316,"(40.291668, -104.355213)"
UPRR DRILL RMPCO,,,03906438,,,,,"ARAPAHOE, LOWER ARAPAHOE, UPPER ARAPAHOE",,,,,,SC00606023BA,1,1,ELBERT,KIOWA-BIJOU,,,NE,NW,23,6.0 S,60.0 W,S,1980,W,660,N,579238.4,4374682.7,39.518143,-104.078181,Spotted from section lines,5527.00,,05/30/2017 04:36:00 PM,https://dwr.state.co.us/Tools/GroundWater/GeophysicalLogs/4455,"(39.518143, -104.078181)"
BAUMGARTNER 1,,,12305021,,,,,LARAMIE-FOX HILLS,,,,,,SB00106302BB,1,1,WELD,LOST CREEK,LOST CREEK,,NE,NW,2,1.0 N,63.0 W,S,1980,W,660,N,550539.0,4437449.5,40.085810,-104.407198,Spotted from section lines,4820.00,,06/06/2018 11:40:00 AM,https://dwr.state.co.us/Tools/GroundWater/GeophysicalLogs/1510,"(40.08581, -104.407198)"
WALTERS 1-2,,,,,,,,"ARAPAHOE, LARAMIE-FOX HILLS, LOWER ARAPAHOE, UPPER ARAPAHOE",,,,,,SC00206102DC,1,1,ADAMS,KIOWA-BIJOU,NORTH KIOWA-BIJOU,,SW,SE,2,2.0 S,61.0 W,S,1980,E,660,S,570445.6,4417048.3,39.900590,-104.175925,Spotted from section lines,4956.00,,09/28/2006 02:00:00 PM,https://dwr.state.co.us/Tools/GroundWater/GeophysicalLogs/2968,"(39.90059, -104.175925)"
KPU F19,,,12308565,11/23/1975,,,9128,"LARAMIE SHALE, LARAMIE-FOX HILLS, PIERRE SHALE, UPPER LARAMIE, UPPER PIERRE",9120.00,,,,,SB01006609CC,1,1,WELD,,,,SW,SW,9,10.0 N,66.0 W,S,,,,,517760.8,4521380.0,40.843275,-104.789323,GPS,5491.00,,10/19/2016 12:53:00 PM,https://dwr.state.co.us/Tools/GroundWater/GeophysicalLogs/150885,"(40.843275, -104.789323)"
JUNGE 1,,,,,",SP,R,",,575,"ARAPAHOE, DENVER, UPPER ARAPAHOE",,,,,,SC00306922D,1,7,JEFFERSON,,,,SE,SE,22,3.0 S,69.0 W,S,,,,,491821.2,4402564.6,39.772982,-105.095511,Spotted from quarters,5450.00,,,https://dwr.state.co.us/Tools/GroundWater/GeophysicalLogs/3738,"(39.772982, -105.095511)"
VETTER 1,,,,,,,,"ARAPAHOE, LARAMIE-FOX HILLS, LOWER ARAPAHOE, UPPER ARAPAHOE",,,,,,SC00206302DA,1,1,ADAMS,LOST CREEK,LOST CREEK,,NE,SE,2,2.0 S,63.0 W,S,660,E,1980,S,551518.1,4417169.5,39.903042,-104.397324,Spotted from section lines,5160.00,,12/01/2006 01:34:00 PM,https://dwr.state.co.us/Tools/GroundWater/GeophysicalLogs/3060,"(39.903042, -104.397324)"
SARGENT 1,,,12305099,,,,,LARAMIE-FOX HILLS,,,,,,SB00206301DC,1,1,WELD,LOST CREEK,LOST CREEK,,SW,SE,1,2.0 N,63.0 W,S,1980,E,660,S,552513.5,4445910.7,40.161924,-104.383345,Spotted from section lines,4715.00,,07/16/2008 02:57:00 PM,https://dwr.state.co.us/Tools/GroundWater/GeophysicalLogs/1913,"(40.161924, -104.383345)"
HORTH 1,,,,,,,,LARAMIE-FOX HILLS,,,,,,SC00106430AC,1,1,ADAMS,,,,SW,NE,30,1.0 S,64.0 W,S,1980,E,1980,N,534950.7,4420836.3,39.936926,-104.590931,Spotted from section lines,5203.00,,09/28/2006 02:00:00 PM,https://dwr.state.co.us/Tools/GroundWater/GeophysicalLogs/2601,"(39.936926, -104.590931)"
SALAMANCA,,,,,,,,LARAMIE-FOX HILLS,,,,,,SB00306607BC,1,2,WELD,,,,SW,NW,7,3.0 N,66.0 W,S,1300,W,1440,N,514878.7,4454674.9,40.242393,-104.825081,Spotted from section lines,4790.00,,09/28/2006 02:00:00 PM,https://dwr.state.co.us/Tools/GroundWater/GeophysicalLogs/2222,"(40.242393, -104.825081)"
ANDERSON 1,,,,,,,,LARAMIE-FOX HILLS,,,,,,SB00306633CC,1,2,WELD,,,,SW,SW,33,3.0 N,66.0 W,S,,,,,517958.7,4447308.9,40.175968,-104.789080,Spotted from quarters,4976.00,,,https://dwr.state.co.us/Tools/GroundWater/GeophysicalLogs/2244,"(40.175968, -104.78908)"
AMOCO CORE HOLE 151,,,,,",SP,R,G,",,500,,,,,,,SC00406401CC,1,1,ARAPAHOE,LOST CREEK,LOST CREEK,,SW,SW,1,4.0 S,64.0 W,S,,,,,542337.5,4397415.5,39.725576,-104.505993,Spotted from quarters,5633.00,,,https://dwr.state.co.us/Tools/GroundWater/GeophysicalLogs/3916,"(39.725576, -104.505993)"
EHLER 3,,,,,",SP,R,C,",,2100,LARAMIE-FOX HILLS,,,,,,SC00106709DD,1,2,ADAMS,,,,SE,SE,9,1.0 S,67.0 W,S,660,E,660,S,509675.1,4424862.2,39.973866,-104.886709,Spotted from section lines,5110.00,,12/01/2006 01:34:00 PM,https://dwr.state.co.us/Tools/GroundWater/GeophysicalLogs/2747,"(39.973866, -104.886709)"
AM WEST,,17483-F,,10/01/1974,",G,SP,R,",,1190,"ARAPAHOE, DAWSON, DENVER, LOWER DAWSON, UPPER ARAPAHOE, UPPER DAWSON",,,,,,SC01106735AB DWR2,2,10,EL PASO,,,,NW,NE,35,11.0 S,67.0 W,S,2000,E,200,N,512410.0,4323000.6,39.056008,-104.856581,Spotted from section lines,6820.00,,05/16/2006 11:44:00 AM,https://dwr.state.co.us/Tools/GroundWater/GeophysicalLogs/5179,"(39.056008, -104.856581)"
FLADER 25-625,,,,,,,,LARAMIE-FOX HILLS,,,,,,SC00205926CC,1,1,ADAMS,KIOWA-BIJOU,,,SW,SW,26,2.0 S,59.0 W,S,660,W,660,S,589069.5,4410773.5,39.842318,-103.958944,Spotted from section lines,5047.00,,09/28/2006 02:00:00 PM,https://dwr.state.co.us/Tools/GroundWater/GeophysicalLogs/2934,"(39.842318, -103.958944)"
AMOCO CORE HOLE 302,,,,,",SP,R,G,",,500,DENVER,,,,,,SC00506233CC,1,1,ARAPAHOE,KIOWA-BIJOU,NORTH KIOWA-BIJOU,,SW,SW,33,5.0 S,62.0 W,S,,,,,556611.4,4379806.4,39.566094,-104.340956,Spotted from quarters,5733.00,,,https://dwr.state.co.us/Tools/GroundWater/GeophysicalLogs/4183,"(39.566094, -104.340956)"
SHAW HEIGHTS FH-1,9000833,6108-R,,,",SP,R,",,1600,LARAMIE-FOX HILLS,1601.00,1351,1601,,0705591,SC00206830BD,1,2,ADAMS,,,,SE,NW,30,2.0 S,68.0 W,S,,,,,496058.1,4411197.9,39.850799,-105.046089,Spotted from quarters,5410.00,,,https://dwr.state.co.us/Tools/GroundWater/GeophysicalLogs/3291,"(39.850799, -105.046089)"
#1 ALLSTATE,,,12309757,,,,,LARAMIE-FOX HILLS,,,,,,SB00406131DB,1,1,WELD,,,,NW,SE,31,4.0 N,61.0 W,S,1980,E,1980,S,563617.5,4457655.1,40.266954,-104.251799,Spotted from section lines,4537.00,,06/10/2014 03:36:00 PM,https://dwr.state.co.us/Tools/GroundWater/GeophysicalLogs/2310,"(40.266954, -104.251799)"
CASE 1,,,00106999,,",SP,R,C,",,1440,"ARAPAHOE, LARAMIE-FOX HILLS, LOWER ARAPAHOE, UPPER ARAPAHOE",,,,,,SC00106617AA,1,2,ADAMS,,,,NE,NE,17,1.0 S,66.0 W,S,660,E,810,N,517736.9,4424458.5,39.970095,-104.792310,Spotted from section lines,5033.00,,07/01/2008 12:54:00 PM,https://dwr.state.co.us/Tools/GroundWater/GeophysicalLogs/2685,"(39.970095, -104.79231)"
1-32 SHOTTON,,,,,,,,"CHEYENNE SANDSTONE, DAKOTA SANDSTONE",,,,,,SC01905032DD,2,67,KIOWA,,,,SE,SE,32,19.0 S,50.0 W,S,,,,,672420.1,4247035.7,38.354904,-103.026710,Spotted from quarters,4396.00,,01/30/2019 02:25:00 PM,https://dwr.state.co.us/Tools/GroundWater/GeophysicalLogs/152662,"(38.354904, -103.02671)"
BAY REFINERY 3-FH,,,,,",SP,R,",,1625,"ARAPAHOE, DENVER, LARAMIE-FOX HILLS, LOWER ARAPAHOE, UPPER ARAPAHOE",,,,,,SC00306812D,1,2,ADAMS,,,,NE,SE,12,3.0 S,68.0 W,S,,,,,504695.3,4405766.2,39.801855,-104.945162,Spotted from quarters,5158.00,,,https://dwr.state.co.us/Tools/GroundWater/GeophysicalLogs/3710,"(39.801855, -104.945162)"
KOCH-POLLARD 1,,,,,",SP,R,C,",,1416,"ARAPAHOE, LARAMIE-FOX HILLS, LOWER ARAPAHOE, UPPER ARAPAHOE",,,,,,SC00106628CC,1,2,ADAMS,,,,SW,SW,28,1.0 S,66.0 W,S,660,W,660,S,518150.7,4420082.9,39.930668,-104.787584,Spotted from section lines,5094.00,,09/28/2006 02:00:00 PM,https://dwr.state.co.us/Tools/GroundWater/GeophysicalLogs/2702,"(39.930668, -104.787584)"
MILLER G U 1,,,12308249,,",SP,R,C,",,1270,"LARAMIE-FOX HILLS, LOWER ARAPAHOE, UPPER ARAPAHOE",,,,,,SB00206531CC,1,2,WELD,,,,SW,SW,31,2.0 N,65.0 W,S,990,W,990,S,524509.9,4437801.2,40.090141,-104.712494,Spotted from section lines,4993.00,,08/02/2016 10:29:00 AM,https://dwr.state.co.us/Tools/GroundWater/GeophysicalLogs/2000,"(40.090141, -104.712494)"
STATE 12-9,,,,,,,,LARAMIE-FOX HILLS,,,,,,SC00506409CB,1,1,ARAPAHOE,,,,NW,SW,9,5.0 S,64.0 W,S,660,W,1980,S,537405.2,4386637.7,39.628701,-104.564158,Spotted from section lines,5897.00,,12/01/2006 01:34:00 PM,https://dwr.state.co.us/Tools/GroundWater/GeophysicalLogs/4229,"(39.628701, -104.564158)"
MARCIN GOCZOL,3691661,83198-F,,08/06/2019,"GR, RES, SP",,494,,660.00,,,590,,SC00606219AD,1,1,ELBERT,KIOWA-BIJOU,,,SE,NE,19,6.0 S,62.0 W,S,741,E,3720,S,554208.0,4374249.0,39.516177,-104.369387,User supplied,5880.00,USGS 24k Topo Quad,04/22/2020 07:38:00 PM,https://dwr.state.co.us/Tools/GroundWater/GeophysicalLogs/153073,"(39.516177, -104.369387)"
BAIN 1 HAR KEN O&G,,,01706226,,,,,"CHEYENNE SANDSTONE, DAKOTA SANDSTONE",,,,,,SC01504610B,2,67,CHEYENNE,NORTHERN HIGH PLAINS,EAST CHEYENNE,,SW,NW,10,15.0 S,46.0 W,S,,,,,712830.5,4293275.6,38.762549,-102.550479,Spotted from quarters,4525.00,,12/04/2018 04:53:00 PM,https://dwr.state.co.us/Tools/GroundWater/GeophysicalLogs/152469,"(38.762549, -102.550479)"
MEKELBURG #1,,,,07/30/1954,",R,",,4124,DAKOTA SANDSTONE,4124.00,,,,,SB00204902CAB,1,65,WASHINGTON,NORTHERN HIGH PLAINS,W - Y,NW,NE,SW,2,2.0 N,49.0 W,S,,,,,685229.0,4448626.8,40.167595,-102.824790,Spotted from quarters,4219.00,,12/17/2007 02:07:00 PM,https://dwr.state.co.us/Tools/GroundWater/GeophysicalLogs/149664,"(40.167595, -102.82479)"
ILLUMINATION SYNERGIES,3625621 ,67063-F,,11/12/2008,",G,SP,R",,885,"DENVER, UPPER DAWSON",890.00,770,890,,,SC01106709DD,2,10,EL PASO,,,,SE,SE,9,11.0 S,67.0 W,S,63,E,1169,S,509782.8,4328251.0,39.103351,-104.886867,Spotted from section lines,6980.00,,01/07/2009 02:38:00 PM,https://dwr.state.co.us/Tools/GroundWater/GeophysicalLogs/149764,"(39.103351, -104.886867)"
WELLS RANCH P3,3655493T,77150-F,,06/06/2013,"G, R, SP",,345,"ALLUVIAL, LARAMIE-FOX HILLS",350.00,150,350,95,0110809,SB00606219BC,1,1,WELD,,,,SW,NE,19,6.0 N,62.0 W,S,,,,,553778.0,4480710.0,40.475340,-104.365575,GPS,4819.00,,08/21/2013 05:06:00 PM,https://dwr.state.co.us/Tools/GroundWater/GeophysicalLogs/150485,"(40.47534, -104.365575)"
CPC 3 WHITEHEAD 32-,,,,,,,,LARAMIE-FOX HILLS,,,,,,SC00606207AC,1,1,ELBERT,KIOWA-BIJOU,,,SW,NE,7,6.0 S,62.0 W,S,1961,E,1978,N,553852.0,4377334.1,39.543996,-104.373278,Spotted from section lines,5811.00,,09/28/2006 02:00:00 PM,https://dwr.state.co.us/Tools/GroundWater/GeophysicalLogs/4502,"(39.543996, -104.373278)"
IRVIN SARGENT 2,,,12305048,,",SP,R,C,",,2000,LARAMIE-FOX HILLS,,,,,,SB00206325CB,1,1,WELD,LOST CREEK,LOST CREEK,,SW,SW,25,2.0 N,63.0 W,S,660,W,660,S,551745.7,4439481.8,40.104052,-104.392878,Spotted from section lines,4785.00,,07/16/2008 04:37:00 PM,https://dwr.state.co.us/Tools/GroundWater/GeophysicalLogs/1934,"(40.104052, -104.392878)"
WARD 1,,,03905002,,",SP,R,C,",,3400,"ARAPAHOE, DENVER, LARAMIE-FOX HILLS, LOWER ARAPAHOE, UPPER ARAPAHOE",,,,,,SC01006329AD,1,1,ELBERT,KIOWA-BIJOU,,,SE,NE,29,10.0 S,63.0 W,S,660,E,1980,N,546542.6,4333886.1,39.152939,-104.461351,Spotted from section lines,7142.00,,09/10/2013 03:08:00 PM,https://dwr.state.co.us/Tools/GroundWater/GeophysicalLogs/5094,"(39.152939, -104.461351)"
SCHMIDT 14-18,,,,,",SP,R,C,",,2370,"ARAPAHOE, DENVER, LARAMIE-FOX HILLS, LOWER ARAPAHOE, UPPER ARAPAHOE",,,,,,SC00506218CC,1,1,ARAPAHOE,KIOWA-BIJOU,NORTH KIOWA-BIJOU,,SW,SW,18,5.0 S,62.0 W,S,660,W,660,S,553491.3,4384597.9,39.609466,-104.376894,Spotted from section lines,5693.00,,09/28/2006 02:00:00 PM,https://dwr.state.co.us/Tools/GroundWater/GeophysicalLogs/4153,"(39.609466, -104.376894)"
JUDGE 2,,,,,",G,",,1200,,,,,,,SC00906419,1,1,ELBERT,,,,SW,NE,19,9.0 S,64.0 W,S,,,,,534665.4,4344891.3,39.252659,-104.598246,Spotted from quarters,6800.00,,,https://dwr.state.co.us/Tools/GroundWater/GeophysicalLogs/5048,"(39.252659, -104.598246)"
HENDERSON AGGREGATE LTD,3692395,83410-F,,10/15/2019,"GR, RES, SP",,767,"DENVER, LOWER ARAPAHOE, UPPER ARAPAHOE",780.00,,,569,,SC00306302AD,1,1,ADAMS,KIOWA-BIJOU,NORTH KIOWA-BIJOU,,SE,NE,2,3.0 S,63.0 W,S,124,E,2822,S,551709.0,4407773.0,39.818377,-104.395832,GPS,5330.00,USGS 24k Topo Quad,08/11/2021 08:03:00 PM,https://dwr.state.co.us/Tools/GroundWater/GeophysicalLogs/152989,"(39.818377, -104.395832)"
BALWIN 1,,,,,,,,"CHEYENNE SANDSTONE, DAKOTA SANDSTONE",,,,,,SC02205010AB,2,67,BENT,,,,NW,NE,10,22.0 S,50.0 W,S,,,,,675034.8,4224988.9,38.155822,-103.002248,Spotted from quarters,4204.00,,01/31/2019 09:37:00 AM,https://dwr.state.co.us/Tools/GroundWater/GeophysicalLogs/152792,"(38.155822, -103.002248)"
CITY OF THORNTON WB1,0510639B,59711-F,,06/02/2003,"SP,R,G",,621,"ARAPAHOE, DENVER, LOWER ARAPAHOE, UPPER ARAPAHOE",604.00,,,,0210340,SC00206801BD,1,2,ADAMS,,,,SE,NW,1,2.0 S,68.0 W,S,1860,W,2157,N,504080.3,4417545.7,39.907995,-104.952276,Spotted from section lines,5275.00,,11/14/2003 12:00:00 AM,https://dwr.state.co.us/Tools/GroundWater/GeophysicalLogs/5677,"(39.907995, -104.952276)"
STEWART 1,,,,,,,,"ARAPAHOE, LARAMIE-FOX HILLS, LOWER ARAPAHOE, LOWER DAWSON, UPPER ARAPAHOE, UPPER DAWSON",,,,,,SC00706413CC,1,1,ELBERT,KIOWA-BIJOU,,,SW,SW,13,7.0 S,64.0 W,S,660,W,660,S,541962.1,4365217.9,39.435491,-104.512412,Spotted from section lines,6322.00,,09/28/2006 02:00:00 PM,https://dwr.state.co.us/Tools/GroundWater/GeophysicalLogs/4807,"(39.435491, -104.512412)"
BLUE ROSE HOMES,3614594 ,65670-F,,06/07/2007,",R, G,SP",,888,"ARAPAHOE, DENVER",920.00,525,920,,,SC01406403AA,2,10,EL PASO,UPPER BLACK SQUIRREL CREEK,UPPER BLACK SQUIRREL,,NE,NE,3,14.0 S,64.0 W,S,670,E,500,N,540095.0,4302018.2,38.866096,-104.537846,Spotted from section lines,6480.00,,12/14/2007 10:46:00 AM,https://dwr.state.co.us/Tools/GroundWater/GeophysicalLogs/149643,"(38.866096, -104.537846)"
BAUER 1,,,,,",SP,R,",,1240,"DENVER, UPPER ARAPAHOE",,,,,,SC00506717AA DWR2,1,8,ARAPAHOE,,,,NE,NE,17,5.0 S,67.0 W,S,,,,,508027.9,4385829.5,39.622196,-104.906476,Spotted from quarters,5650.00,,,https://dwr.state.co.us/Tools/GroundWater/GeophysicalLogs/4349,"(39.622196, -104.906476)"
BAUER 24-23,,,12311041,,,,,,,,,,,SB00206323CD,1,1,WELD,LOST CREEK,LOST CREEK,,SE,SW,23,2.0 N,63.0 W,S,1712,W,660,S,550439.9,4441072.0,40.118456,-104.408077,Spotted from section lines,4778.00,,07/16/2008 04:36:00 PM,https://dwr.state.co.us/Tools/GroundWater/GeophysicalLogs/1931,"(40.118456, -104.408077)"
SB00106035DD,,,,,,,,LARAMIE-FOX HILLS,,,,,,SB00106035DD,1,1,MORGAN,KIOWA-BIJOU,NORTH KIOWA-BIJOU,,SE,SE,35,1.0 N,60.0 W,S,660,E,660,S,580355.3,4428505.6,40.002929,-104.058608,Spotted from section lines,4760.00,,09/28/2006 02:00:00 PM,https://dwr.state.co.us/Tools/GroundWater/GeophysicalLogs/1465,"(40.002929, -104.058608)"
UPRR MICHAUD 1-25,,,,,,,,"ARAPAHOE, LARAMIE-FOX HILLS, LOWER ARAPAHOE, UPPER ARAPAHOE",,,,,,SC00506225CD,1,1,ARAPAHOE,KIOWA-BIJOU,NORTH KIOWA-BIJOU,,SE,SW,25,5.0 S,62.0 W,S,1980,W,660,S,561833.6,4381509.1,39.581073,-104.280001,Spotted from section lines,5429.00,,09/28/2006 02:00:00 PM,https://dwr.state.co.us/Tools/GroundWater/GeophysicalLogs/4165,"(39.581073, -104.280001)"
EILEEN LAND,0036683 ,52314-F,,,",SP,G,R,C,",,545,"LOWER ARAPAHOE, UPPER ARAPAHOE",540.00,290,300,,,SC00106733AA,1,2,ADAMS,,,,NE,NE,33,1.0 S,67.0 W,S,300,E,750,N,509799.8,4419623.5,39.926671,-104.885324,Spotted from section lines,5110.00,,,https://dwr.state.co.us/Tools/GroundWater/GeophysicalLogs/2804,"(39.926671, -104.885324)"
NIELSEN TRUST 1,,,12309581,,,,,"ARAPAHOE, LOWER ARAPAHOE, UPPER ARAPAHOE",,,,,,SB00106223AC,1,1,WELD,KIOWA-BIJOU,,,SW,NE,23,1.0 N,62.0 W,S,1980,E,1980,N,560647.8,4432291.1,40.038674,-104.289113,Spotted from section lines,4931.00,,06/16/2008 01:35:00 PM,https://dwr.state.co.us/Tools/GroundWater/GeophysicalLogs/1498,"(40.038674, -104.289113)"
SARATOGA 1,,,12308553,,,,,LARAMIE-FOX HILLS,,,,,,SB00406633CC,1,2,WELD,,,,SW,SW,33,4.0 N,66.0 W,S,990,W,990,S,517991.2,4457024.7,40.263504,-104.788428,Spotted from section lines,4780.00,,12/14/2015 09:57:00 AM,https://dwr.state.co.us/Tools/GroundWater/GeophysicalLogs/2378,"(40.263504, -104.788428)"
VICKERS,0072209,21742-F,,11/07/1978,",SP,R,G,",,910,DENVER,900.00,870,900,,,SC00506707AC,1,8,ARAPAHOE,,,,SW,NE,7,5.0 S,67.0 W,S,2300,E,2100,N,505928.5,4387004.3,39.632796,-104.930920,Spotted from section lines,5480.00,,,https://dwr.state.co.us/Tools/GroundWater/GeophysicalLogs/4335,"(39.632796, -104.93092)"
KPU I14,,,12305428,02/07/1964,,,6385,"LARAMIE-FOX HILLS, PIERRE SHALE, UPPER PIERRE, WHITE RIVER",6389.00,,,,,SB00705802BD,1,64,WELD,,,,SE,NW,2,7.0 N,58.0 W,S,,,,,598751.0,4495632.9,40.605623,-103.832764,GPS,4762.00,,10/19/2016 03:27:00 PM,https://dwr.state.co.us/Tools/GroundWater/GeophysicalLogs/150927,"(40.605623, -103.832764)"
CHIVINGTON GRAZING ASSOC 1-25,,,,,,,,"CHEYENNE SANDSTONE, DAKOTA SANDSTONE",,,,,,SC01804625BA,2,67,KIOWA,,,,NE,NW,25,18.0 S,46.0 W,S,,,,,716201.1,4260546.9,38.467058,-102.521884,Spotted from quarters,3992.00,,01/30/2019 01:00:00 PM,https://dwr.state.co.us/Tools/GroundWater/GeophysicalLogs/152605,"(38.467058, -102.521884)"
WOODMAN W&S 6,,16112-F,,,",SP,R,",,1035,"ARAPAHOE, DENVER, LOWER ARAPAHOE, UPPER ARAPAHOE",,,,,,SC01306603DD,2,10,EL PASO,,,,SE,SE,3,13.0 S,66.0 W,S,419,E,40,S,520990.2,4310171.7,38.940238,-104.757812,Spotted from section lines,6745.00,,07/10/2008 08:47:00 AM,https://dwr.state.co.us/Tools/GroundWater/GeophysicalLogs/5269,"(38.940238, -104.757812)"
GODWIN-BEAVERS 1,,,,,",SP,R,C,D,",,2770,"ARAPAHOE, DENVER, LARAMIE-FOX HILLS, LOWER ARAPAHOE, UPPER ARAPAHOE",,,,,,SC01206525DC,2,10,EL PASO,UPPER BLACK SQUIRREL CREEK,UPPER BLACK SQUIRREL,,SW,SE,25,12.0 S,65.0 W,S,,,,,533384.1,4313669.5,38.971371,-104.614632,Spotted from quarters,7140.00,,,https://dwr.state.co.us/Tools/GroundWater/GeophysicalLogs/5216,"(38.971371, -104.614632)"
COWAN FEEDERS,9062335,16131-F,,,",SP,R,G,",,310,LARAMIE-FOX HILLS,,,,,0106135,SB00306418AB,1,2,WELD,,,,NW,NE,18,3.0 N,64.0 W,S,1980,E,660,N,534750.8,4453431.1,40.230597,-104.591521,Spotted from section lines,4800.00,,09/28/2006 02:00:00 PM,https://dwr.state.co.us/Tools/GroundWater/GeophysicalLogs/2178,"(40.230597, -104.591521)"
STATE SMITH 1-16,,,00506500,,,,,LARAMIE-FOX HILLS,,,,,,SC00406516BB,1,2,ARAPAHOE,,,,NW,NW,16,4.0 S,65.0 W,S,660,W,660,N,527772.5,4395517.7,39.709078,-104.676017,Spotted from section lines,5627.00,,04/04/2022 11:06:00 AM,https://dwr.state.co.us/Tools/GroundWater/GeophysicalLogs/3980,"(39.709078, -104.676017)"
MARLATT 1-14,,,,,,,,LARAMIE-FOX HILLS,,,,,,SC00506114AA,1,1,ARAPAHOE,KIOWA-BIJOU,NORTH KIOWA-BIJOU,,NE,NE,14,5.0 S,61.0 W,S,660,E,660,N,570732.3,4386083.8,39.621604,-104.175912,Spotted from section lines,5393.00,,09/28/2006 02:00:00 PM,https://dwr.state.co.us/Tools/GroundWater/GeophysicalLogs/4110,"(39.621604, -104.175912)"
SKYLINE ACRES 1,,,,,",SP,R,",,1116,,,,,,,SC00406720DC,1,8,DENVER,,,,SW,SE,20,4.0 S,67.0 W,S,,,,,507678.0,4392671.9,39.683852,-104.910473,Spotted from quarters,5415.00,,,https://dwr.state.co.us/Tools/GroundWater/GeophysicalLogs/4016,"(39.683852, -104.910473)"
KPU A14,,,12308450,07/06/1975,,,6790,"LARAMIE-FOX HILLS, OGALLALA, PIERRE SHALE, UPPER PIERRE, WHITE RIVER",6785.00,,,,,SB01205734CC,1,64,WELD,,,,SW,SW,34,12.0 N,57.0 W,S,,,,,605761.6,4535562.7,40.964382,-103.743149,User supplied,5153.00,,10/04/2016 01:10:00 PM,https://dwr.state.co.us/Tools/GroundWater/GeophysicalLogs/150754,"(40.964382, -103.743149)"
IMHOF 77495-F,366145,77495-F,,10/07/2014,"GR, RES, SP",,626,LARAMIE-FOX HILLS,,,,440,,SB00206629BB,1,2,WELD,,,,NW,NW,29,2.0 N,66.0 W,S,,,,,516165.0,4440649.0,40.116002,-104.810314,GPS,4880.00,,08/09/2018 02:55:00 PM,https://dwr.state.co.us/Tools/GroundWater/GeophysicalLogs/150599,"(40.116002, -104.810314)"
FLADER EST 1-A,,,,,",SP,R,C,",,1180,LARAMIE-FOX HILLS,,,,,,SC00306018DB,1,1,ADAMS,KIOWA-BIJOU,NORTH KIOWA-BIJOU,,NW,SE,18,3.0 S,60.0 W,S,1980,E,1980,S,573632.2,4404611.9,39.788283,-104.140057,Spotted from section lines,5021.00,,09/28/2006 02:00:00 PM,https://dwr.state.co.us/Tools/GroundWater/GeophysicalLogs/3394,"(39.788283, -104.140057)"
UPRR 43 PAN AM H 5,,,12308283,,,,,LARAMIE-FOX HILLS,,,,,,SB00106719CC,1,2,WELD,,,,SW,SW,19,1.0 N,67.0 W,S,1200,W,360,S,505269.2,4431117.8,40.030270,-104.938256,Spotted from section lines,5129.00,,06/16/2008 02:56:00 PM,https://dwr.state.co.us/Tools/GroundWater/GeophysicalLogs/1696,"(40.03027, -104.938256)"
SPICHARD 1,,,,,,,,"ARAPAHOE, LARAMIE-FOX HILLS, LOWER ARAPAHOE, UPPER ARAPAHOE",,,,,,SC00406118CA,1,1,ARAPAHOE,KIOWA-BIJOU,NORTH KIOWA-BIJOU,,NE,SW,18,4.0 S,61.0 W,S,1898,W,1897,S,563550.0,4394770.5,39.700433,-104.258746,Spotted from section lines,5330.00,,09/28/2006 02:00:00 PM,https://dwr.state.co.us/Tools/GroundWater/GeophysicalLogs/3789,"(39.700433, -104.258746)"
AMBRO-CUNN 1,,,,,,,,,,,,,,SB00205927BC,1,1,MORGAN,,,,SW,NW,27,2.0 N,59.0 W,S,,,,,587070.8,4440607.7,40.111279,-103.978313,Spotted from quarters,,,,https://dwr.state.co.us/Tools/GroundWater/GeophysicalLogs/1850,"(40.111279, -103.978313)"
SUMMIT MIDSTREAM NIOBRARA LLC,3687135,82686-F,,12/13/2018,"GR, RES, SP",,635,"UPPER LARAMIE, WHITE RIVER",635.00,,,390,,SB01206326AD,1,1,WELD,UPPER CROW CREEK,,,SE,NE,26,12.0 N,63.0 W,S,718,E,3262,S,551035.0,4536963.0,40.982249,-104.393348,GPS,5425.00,USGS 24k Topo Quad,01/15/2019 11:11:00 AM,https://dwr.state.co.us/Tools/GroundWater/GeophysicalLogs/152493,"(40.982249, -104.393348)"
NELSON 1-20,,,,,,,,"CHEYENNE SANDSTONE, DAKOTA SANDSTONE",,,,,,SC01304420DA,1,49,CHEYENNE,NORTHERN HIGH PLAINS,EAST CHEYENNE,,NE,SE,20,13.0 S,44.0 W,S,,,,,729429.0,4309489.3,38.904347,-102.354221,Spotted from quarters,4236.00,,11/30/2018 04:31:00 PM,https://dwr.state.co.us/Tools/GroundWater/GeophysicalLogs/152376,"(38.904347, -102.354221)"
TTE 1-32 HAND-MUEG,,,00107924,,",SP,R,C,",,2195,"ARAPAHOE, DENVER, LARAMIE-FOX HILLS, LOWER ARAPAHOE, UPPER ARAPAHOE",,,,,,SC00306332DC,1,1,ADAMS,LOST CREEK,LOST CREEK,,SW,SE,32,3.0 S,63.0 W,S,1980,E,660,S,546347.6,4399031.0,39.739923,-104.459085,Spotted from section lines,5514.00,,12/01/2021 10:39:00 AM,https://dwr.state.co.us/Tools/GroundWater/GeophysicalLogs/3572,"(39.739923, -104.459085)"
STATE 7-35,,,,,",SP,R,C,",,2760,"ARAPAHOE, DENVER, LARAMIE-FOX HILLS, LOWER ARAPAHOE, LOWER DAWSON, UPPER ARAPAHOE",,,,,,SC00506535AC,1,2,ARAPAHOE,,,,SW,NE,35,5.0 S,65.0 W,S,1980,E,1980,N,531751.7,4380644.9,39.574931,-104.630314,Spotted from section lines,6069.00,,09/28/2006 02:00:00 PM,https://dwr.state.co.us/Tools/GroundWater/GeophysicalLogs/4283,"(39.574931, -104.630314)"
WAHL 1,,,,,",SP,R,C,",,1715,LARAMIE-FOX HILLS,,,,,,SB00206123CA,1,1,WELD,KIOWA-BIJOU,NORTH KIOWA-BIJOU,,NE,SW,23,2.0 N,61.0 W,S,,,,,569797.5,4441601.6,40.121844,-104.180871,Spotted from quarters,4752.00,,,https://dwr.state.co.us/Tools/GroundWater/GeophysicalLogs/1881,"(40.121844, -104.180871)"
LAKE MEADOWS,9008473 ,4017-F,,,",G,R,",,383,LARAMIE-FOX HILLS,383.00,76,365,,0605534,SB00106931DD,1,6,BOULDER,,,,SE,SE,31,1.0 N,69.0 W,S,98,E,676,S,487186.1,4427998.1,40.002079,-105.150132,Spotted from section lines,5400.00,,,https://dwr.state.co.us/Tools/GroundWater/GeophysicalLogs/1818,"(40.002079, -105.150132)"
STATE 1 3,,,,,,,,"CHEYENNE SANDSTONE, DAKOTA SANDSTONE",,,,,,SC02104715AC,2,67,PROWERS,,,,SW,NE,15,21.0 S,47.0 W,S,,,,,703430.9,4233358.2,38.225230,-102.675983,Spotted from quarters,3977.00,,01/30/2019 03:43:00 PM,https://dwr.state.co.us/Tools/GroundWater/GeophysicalLogs/152732,"(38.22523, -102.675983)"
ROWELY DOWNS,0348243A,42530-F,,,",G,SP,R,C,",,1643,"ARAPAHOE, DENVER, LOWER ARAPAHOE, LOWER DAWSON, UPPER ARAPAHOE, UPPER DAWSON",1620.00,400,1620,,,SC00606623BC DWR1,1,8,DOUGLAS,,,,SW,NW,23,6.0 S,66.0 W,S,50,W,1750,N,521009.3,4374232.5,39.517487,-104.755599,Spotted from section lines,5865.00,,,https://dwr.state.co.us/Tools/GroundWater/GeophysicalLogs/4632,"(39.517487, -104.755599)"
REID 1,,,08705168,,",SP,R,C,",,1820,LARAMIE-FOX HILLS,,,,,,SB00106020CC,1,1,MORGAN,KIOWA-BIJOU,NORTH KIOWA-BIJOU,,SW,SW,20,1.0 N,60.0 W,S,330,W,330,S,574183.5,4431552.6,40.030944,-104.130548,Spotted from section lines,4798.00,,06/16/2008 01:31:00 PM,https://dwr.state.co.us/Tools/GroundWater/GeophysicalLogs/1460,"(40.030944, -104.130548)"
WILLIAMS,0427584,50113-F,,08/10/1998,",G,SP,R,",,626,"LOWER DAWSON, UPPER DAWSON",630.00,450,630,,,SC00906419BB,1,1,ELBERT,,,,NW,NW,19,9.0 S,64.0 W,S,100,W,160,N,533934.6,4345647.2,39.259498,-104.606673,Spotted from section lines,6730.00,,,https://dwr.state.co.us/Tools/GroundWater/GeophysicalLogs/5049,"(39.259498, -104.606673)"
CHAMP-SCHWARTZ 1,,,,,",SP,R,C",,1325,"ARAPAHOE, LARAMIE-FOX HILLS, LOWER ARAPAHOE, UPPER ARAPAHOE",,,,,,SC00506031CC,1,1,ARAPAHOE,KIOWA-BIJOU,NORTH KIOWA-BIJOU,,SW,SW,31,5.0 S,60.0 W,S,660,W,660,S,572687.8,4380065.1,39.567212,-104.153785,Spotted from section lines,5493.00,,09/28/2006 02:00:00 PM,https://dwr.state.co.us/Tools/GroundWater/GeophysicalLogs/4099,"(39.567212, -104.153785)"
UPRR 24 PA C-1,,,,,,,,LARAMIE-FOX HILLS,,,,,,SC00206403CA,1,1,ADAMS,,,,NE,SW,3,2.0 S,64.0 W,S,1650,W,1650,S,539327.6,4417081.2,39.902902,-104.539929,Spotted from section lines,5386.00,,09/28/2006 02:00:00 PM,https://dwr.state.co.us/Tools/GroundWater/GeophysicalLogs/3119,"(39.902902, -104.539929)"
POLLOCK 1,,,,,",SP,R,",,451,"ARAPAHOE, DENVER, UPPER ARAPAHOE",,,,,,SC00506831AB,1,8,ARAPAHOE,,,,NW,NE,31,5.0 S,68.0 W,S,,,,,496378.9,4381016.8,39.578861,-105.042174,Spotted from quarters,5390.00,,,https://dwr.state.co.us/Tools/GroundWater/GeophysicalLogs/4416,"(39.578861, -105.042174)"
KURTZ B,,,12311352,,,,,LARAMIE-FOX HILLS,,,,,,SB00306720D,1,5,WELD,,,,SW,SE,20,3.0 N,67.0 W,S,1600,E,990,S,507625.6,4450716.2,40.206822,-104.910400,Spotted from section lines,4776.00,,08/30/2016 01:51:00 PM,https://dwr.state.co.us/Tools/GroundWater/GeophysicalLogs/2260,"(40.206822, -104.9104)"
STONEGATE KA-18,0254534,28438-F,,,",SP,D,N,R,C,G,",,1800,"ARAPAHOE, DENVER, LOWER ARAPAHOE, LOWER DAWSON, UPPER ARAPAHOE",,,,,0807686,SC00606617BC,1,8,DOUGLAS,,,,SW,NW,17,6.0 S,66.0 W,S,,,,,516345.2,4375748.6,39.531245,-104.809818,Spotted from quarters,5900.00,,06/20/2025 10:03:00 AM,https://dwr.state.co.us/Tools/GroundWater/GeophysicalLogs/4630,"(39.531245, -104.809818)"
"JACKSON, ROBERT A. #1",,,10106010,08/27/1985,,,,"CHEYENNE SANDSTONE, DAKOTA SANDSTONE",,,,,,SC02106530CA,1,14,PUEBLO,,,,SW,NE,30,21.0 S,65.0 W,S,1345,E,2009,N,525949.5,4227424.3,38.194389,-104.703671,Spotted from section lines,5315.00,USGS 24k Topo Quad,01/26/2017 12:07:00 PM,https://dwr.state.co.us/Tools/GroundWater/GeophysicalLogs/151029,"(38.194389, -104.703671)"
,0320340A,38404-F,,,",SP,R,G,",,435,"DENVER, LOWER DAWSON",425.00,141,425,100,,SC00706721BC,1,8,DOUGLAS,,,,SW,NW,21,7.0 S,67.0 W,S,1159,W,1265,N,508505.8,4364687.7,39.431695,-104.901176,Spotted from section lines,6060.00,,04/27/2015 09:33:00 AM,https://dwr.state.co.us/Tools/GroundWater/GeophysicalLogs/4878,"(39.431695, -104.901176)"
ARISTOCRAT RANCHETTE,,18993-F,,,",G,SP,R,",,895,"LARAMIE-FOX HILLS, LOWER ARAPAHOE, UPPER ARAPAHOE",,,,,,SB00206627DC,1,2,WELD,,,,SE,SE,27,2.0 N,66.0 W,S,1120,E,570,S,520631.7,4439269.6,40.103480,-104.757938,Spotted from section lines,5045.00,,08/31/2017 05:43:00 PM,https://dwr.state.co.us/Tools/GroundWater/GeophysicalLogs/2044,"(40.10348, -104.757938)"
LOPEZ,0201349,21573-F,,,",G,SP,D,",,899,LARAMIE-FOX HILLS,,,,,,SC00106803CD,1,2,BROOMFIELD,,,,SE,SW,3,1.0 S,68.0 W,S,1980,W,660,S,500837.4,4426480.1,39.988499,-104.990206,Spotted from section lines,5230.00,,,https://dwr.state.co.us/Tools/GroundWater/GeophysicalLogs/2822,"(39.988499, -104.990206)"
ECCV L-19,0459162B,53664-F,,10/13/2000,"SP,R,G,Ca",,2392,"ARAPAHOE, DENVER, LARAMIE-FOX HILLS, LOWER ARAPAHOE, LOWER DAWSON, UPPER ARAPAHOE",2347.00,2028,2317,,0815168,SC00506621CC DWR1,1,8,ARAPAHOE,,,,SW,SW,21,5.0 S,66.0 W,S,158,W,411,S,517903.4,4382940.6,39.596020,-104.791498,Spotted from section lines,5770.00,,04/13/2001 12:00:00 AM,https://dwr.state.co.us/Tools/GroundWater/GeophysicalLogs/5407,"(39.59602, -104.791498)"
LEN D PETTINGER GAS UNIT 1,,,12308335,,,,,LARAMIE-FOX HILLS,,,,,,SB00106518CC,1,2,WELD,,,,SW,SW,18,1.0 N,65.0 W,S,1170,W,1170,S,524579.4,4433025.9,40.047119,-104.711866,Spotted from section lines,5008.00,,06/16/2008 02:03:00 PM,https://dwr.state.co.us/Tools/GroundWater/GeophysicalLogs/1585,"(40.047119, -104.711866)"
BARKEY,3619063 ,66081-F,,,",G,R,SP",,700,"ARAPAHOE, LARAMIE-FOX HILLS",700.00,520,700,,,SB00206621BD,1,2,WELD,,,,SE,NW,21,2.0 N,66.0 W,S,2410,W,1350,N,518482.5,4441882.1,40.127063,-104.783077,Spotted from section lines,4960.00,,12/17/2007 02:20:00 PM,https://dwr.state.co.us/Tools/GroundWater/GeophysicalLogs/149665,"(40.127063, -104.783077)"
UPRR WOODIS 14-17,,,,,,,,LARAMIE-FOX HILLS,,,,,,SC00506017CC,1,1,ARAPAHOE,KIOWA-BIJOU,NORTH KIOWA-BIJOU,,SW,SW,17,5.0 S,60.0 W,S,660,W,660,S,574342.5,4384927.5,39.610874,-104.133974,Spotted from section lines,5381.00,,09/28/2006 02:00:00 PM,https://dwr.state.co.us/Tools/GroundWater/GeophysicalLogs/4090,"(39.610874, -104.133974)"
REBOUND PROGS,0381824B,47927-F,,02/26/1999,",SP,R,G,",,425,"ARAPAHOE, UPPER ARAPAHOE",425.00,250,400,,,SC01106112DA,2,67,EL PASO,UPPER BIG SANDY,UPPER BIG SANDY,,NE,SE,12,11.0 S,61.0 W,S,600,E,2300,S,572207.0,4328883.4,39.106109,-104.164889,Spotted from section lines,6220.00,,12/20/1999 12:00:00 AM,https://dwr.state.co.us/Tools/GroundWater/GeophysicalLogs/5367,"(39.106109, -104.164889)"
DINNER 1,,,,,,,,LARAMIE-FOX HILLS,,,,,,SB00406406CC,1,2,WELD,,,,SW,SW,6,4.0 N,64.0 W,S,600,W,600,S,533982.4,4465084.0,40.335612,-104.599942,Spotted from section lines,4834.00,,09/28/2006 02:00:00 PM,https://dwr.state.co.us/Tools/GroundWater/GeophysicalLogs/2338,"(40.335612, -104.599942)"
ROCKY FLATS 42892,,18889-MH,,,",SP,R,G,N,D,So,",,160,,,,,,,SC00207011CA,1,2,JEFFERSON,,,,NE,SW,11,2.0 S,70.0 W,S,,,,,483206.0,4415637.6,39.890644,-105.196441,Spotted from quarters,,,,https://dwr.state.co.us/Tools/GroundWater/GeophysicalLogs/3324,"(39.890644, -105.196441)"
TOWN OF CASTLE ROCK CR-124,0515583C,60267-F,,02/23/2004,"SP,G,R,CA,C",,2293,"ARAPAHOE, DENVER, LOWER DAWSON, UPPER DAWSON",2264.00,,,,0808326,SC00706631CD DWR2,1,8,DOUGLAS,,,,SE,SW,31,7.0 S,66.0 W,S,,,,,515120.0,4360324.0,39.392282,-104.824424,GPS,6474.00,,05/23/2005 12:23:00 PM,https://dwr.state.co.us/Tools/GroundWater/GeophysicalLogs/13246,"(39.392282, -104.824424)"
DONALA W & S DISTRICT,,62584-F,,,",SP,G,R,D,C",,1099,"ARAPAHOE, DENVER",1100.00,,,,,SC01206701AC,2,10,EL PASO,,,,SW,NE,1,12.0 S,67.0 W,S,1550,E,2050,N,514154.7,4320824.3,39.036364,-104.836458,Spotted from section lines,6737.00,,11/25/2005 12:54:00 PM,https://dwr.state.co.us/Tools/GroundWater/GeophysicalLogs/46162,"(39.036364, -104.836458)"
CAPSTAN COAL PIEZ#4,,,,,",G,R,",,220,LARAMIE-FOX HILLS,,,,,,SC01406429CC,2,10,EL PASO,,,,SW,SW,29,14.0 S,64.0 W,S,,,,,535817.6,4294348.5,38.797167,-104.587548,Spotted from quarters,6100.00,,,https://dwr.state.co.us/Tools/GroundWater/GeophysicalLogs/5306,"(38.797167, -104.587548)"
SONNACK 77937-F,3663297,77937-F,,07/14/2014,"RES, GR, SP",,1138,"DAWSON, DENVER",1140.00,510,1150,510,0815461,SC00906716CC,1,8,DOUGLAS,,,,SW,SW,16,9.0 S,67.0 W,S,,,,,508260.0,4345814.0,39.261628,-104.904266,GPS,6700.00,USGS 24k Topo Quad,10/04/2017 10:41:00 AM,https://dwr.state.co.us/Tools/GroundWater/GeophysicalLogs/150596,"(39.261628, -104.904266)"
DB-109  DONALA 4A,0471818,55359-F,,12/12/2001,"G,SP,R,CA,C",,1785,"ARAPAHOE, DAWSON, DENVER, LOWER ARAPAHOE, LOWER DAWSON, UPPER ARAPAHOE",1754.00,1300,1724,1245,1005697,SC01106631AA DWR2,2,10,EL PASO,,,,NE,NE,31,11.0 S,66.0 W,S,,,,,515994.3,4323026.0,39.056175,-104.815158,GPS,7148.00,,05/01/2025 04:29:00 PM,https://dwr.state.co.us/Tools/GroundWater/GeophysicalLogs/5571,"(39.056175, -104.815158)"
SMITH 1,,,,,,,,"ARAPAHOE, LOWER ARAPAHOE, UPPER ARAPAHOE",,,,,,SC00506212CC,1,1,ARAPAHOE,KIOWA-BIJOU,NORTH KIOWA-BIJOU,,SW,SW,12,5.0 S,62.0 W,S,660,W,660,S,561511.7,4386338.3,39.624605,-104.283302,Spotted from section lines,5604.00,,09/28/2006 02:00:00 PM,https://dwr.state.co.us/Tools/GroundWater/GeophysicalLogs/4145,"(39.624605, -104.283302)"
BROMLEY 1,,,,,,,,"LOWER ARAPAHOE, UPPER ARAPAHOE",,,,,,SC00106726CD,1,2,ADAMS,,,,SE,SW,26,1.0 S,67.0 W,S,1850,W,1100,S,512067.9,4420199.2,39.931822,-104.858772,Spotted from section lines,5002.00,,09/28/2006 02:00:00 PM,https://dwr.state.co.us/Tools/GroundWater/GeophysicalLogs/2793,"(39.931822, -104.858772)"
ARAP. CTY WWA LFH5,0475592 ,55824-F,,,"SP,R,G",,2242,"ARAPAHOE, DENVER, LARAMIE-FOX HILLS, LOWER ARAPAHOE, LOWER DAWSON, UPPER ARAPAHOE",2220.00,1955,2210,,0814336,SC00506629BC,1,8,ARAPAHOE,,,,SW,NW,29,5.0 S,66.0 W,S,150,W,2500,N,516295.1,4382048.1,39.588006,-104.810248,Spotted from section lines,5655.00,,09/16/2008 11:03:00 AM,https://dwr.state.co.us/Tools/GroundWater/GeophysicalLogs/5396,"(39.588006, -104.810248)"
WAHL,,,,,,,,LARAMIE-FOX HILLS,,,,,,SB00206128CA,1,1,WELD,KIOWA-BIJOU,NORTH KIOWA-BIJOU,,NE,SW,28,2.0 N,61.0 W,S,1680,W,1680,S,566505.8,4439872.4,40.106529,-104.219674,Spotted from section lines,4759.00,,12/01/2006 01:34:00 PM,https://dwr.state.co.us/Tools/GroundWater/GeophysicalLogs/1882,"(40.106529, -104.219674)"
KOEPKE FAMILY,3616710 ,65861-F,,06/29/2007,",SP,G,R,",,245,LARAMIE-FOX HILLS,245.00,160,245,,,SC00405907DB,1,1,ARAPAHOE,KIOWA-BIJOU,NORTH KIOWA-BIJOU,,NW,SE,7,4.0 S,59.0 W,S,2490,E,2144,S,583015.8,4396778.8,39.716852,-104.031464,Spotted from section lines,5105.00,,08/08/2007 02:31:00 PM,https://dwr.state.co.us/Tools/GroundWater/GeophysicalLogs/149645,"(39.716852, -104.031464)"
CENTENNIAL LFH-11,0489398D,58095-F,,07/15/2002,"G,SP,R,Ca.C",,1949,"ARAPAHOE, DENVER, LARAMIE-FOX HILLS, LOWER ARAPAHOE, UPPER ARAPAHOE",1971.00,,,,0807002,SC00606827DB,1,8,DOUGLAS,,,,NW,SE,27,6.0 S,68.0 W,S,1557,E,2221,S,501265.6,4372136.6,39.498857,-104.985286,Spotted from section lines,5820.00,,12/24/2002 12:00:00 AM,https://dwr.state.co.us/Tools/GroundWater/GeophysicalLogs/5594,"(39.498857, -104.985286)"
SUPERIOR METRO 1B,0290957B,34317-F,,,",G,R,SP,",,635,LARAMIE-FOX HILLS,635.00,400,585,,0606067,SC00106930AB DWR2,1,6,BOULDER,,,,NW,NE,30,1.0 S,69.0 W,S,2260,E,50,N,486760.0,4421456.7,39.943139,-105.154990,Spotted from section lines,5530.00,,,https://dwr.state.co.us/Tools/GroundWater/GeophysicalLogs/2872,"(39.943139, -105.15499)"
RUTH DAVIS 41-23 1,,,00107999,,,,,LARAMIE-FOX HILLS,,,,,,SC00106423AA,1,1,ADAMS,LOST CREEK,LOST CREEK,,NE,NE,23,1.0 S,64.0 W,S,661,E,661,N,541781.9,4422761.0,39.953959,-104.510858,Spotted from section lines,5165.00,,07/01/2008 10:46:00 AM,https://dwr.state.co.us/Tools/GroundWater/GeophysicalLogs/2587,"(39.953959, -104.510858)"
MONAHAN,3691423,83156-F,,06/04/2019,"GR, RES, SP",,878,"ARAPAHOE, DENVER",880.00,380,880,380,,SC00906131CA,1,1,ELBERT,KIOWA-BIJOU,,,NE,SW,31,9.0 S,61.0 W,S,3303,E,3812,N,563411.0,4341421.0,39.219766,-104.265438,GPS,6170.00,USGS 24k Topo Quad,07/11/2019 05:58:00 PM,https://dwr.state.co.us/Tools/GroundWater/GeophysicalLogs/152953,"(39.219766, -104.265438)"
JOLLY 1,,,03906061,,,,,LARAMIE-FOX HILLS,,,,,,SC00605822CC,1,1,ELBERT,,,,SW,SW,22,6.0 S,58.0 W,S,660,W,660,S,596559.8,4373654.0,39.507101,-103.876845,Spotted from section lines,5352.00,,12/14/2016 01:16:00 PM,https://dwr.state.co.us/Tools/GroundWater/GeophysicalLogs/4432,"(39.507101, -103.876845)"
IRONHORSE-STATE 1,,,04106005,,,,,"ARAPAHOE, DENVER, LARAMIE-FOX HILLS, LOWER ARAPAHOE, UPPER ARAPAHOE",,,,,,SC01206116DD,2,17,EL PASO,,,,SE,SE,16,12.0 S,61.0 W,S,660,E,660,S,567289.7,4317037.2,38.999765,-104.222923,Spotted from section lines,6673.00,,09/10/2013 03:05:00 PM,https://dwr.state.co.us/Tools/GroundWater/GeophysicalLogs/5183,"(38.999765, -104.222923)"
MERKOWITZ,0038826 ,16824-F,,,",G,",,1240,,1247.00,1121,1247,,,SC00106634CC DWR1,1,2,ADAMS,,,,SW,SW,34,1.0 S,66.0 W,S,60,W,50,S,519570.4,4418285.3,39.914437,-104.771031,Spotted from section lines,5120.00,,,https://dwr.state.co.us/Tools/GroundWater/GeophysicalLogs/2715,"(39.914437, -104.771031)"
HART UNIT I NO. 1,,,12309099,,,,,LARAMIE-FOX HILLS,,,,,,SB00206726BD,1,2,WELD,,,,SE,NW,26,2.0 N,67.0 W,S,,,,,511875.8,4440081.4,40.110960,-104.860657,Spotted from quarters,4954.00,,08/26/2015 10:35:00 AM,https://dwr.state.co.us/Tools/GroundWater/GeophysicalLogs/2080,"(40.11096, -104.860657)"
NAUMAN #4,,,00108443,,",SP,R,C,",,1750,"LARAMIE-FOX HILLS, LOWER ARAPAHOE",,,,,,SC00106714BD,1,2,ADAMS,,,,SE,NW,14,1.0 S,67.0 W,S,2040,W,2040,N,512120.5,4424062.2,39.966626,-104.858092,Spotted from section lines,5072.00,,12/13/2016 05:12:00 PM,https://dwr.state.co.us/Tools/GroundWater/GeophysicalLogs/2760,"(39.966626, -104.858092)"
BLAIR 1-4,,,,,",SP,R,C,",,2140,"ARAPAHOE, DENVER, LARAMIE-FOX HILLS, LOWER ARAPAHOE, UPPER ARAPAHOE",,,,,,SC00506304CC,1,1,ARAPAHOE,KIOWA-BIJOU,NORTH KIOWA-BIJOU,,SW,SW,4,5.0 S,63.0 W,S,660,W,660,S,547051.2,4387745.2,39.638199,-104.451686,Spotted from section lines,5726.00,,09/28/2006 02:00:00 PM,https://dwr.state.co.us/Tools/GroundWater/GeophysicalLogs/4193,"(39.638199, -104.451686)"
FLADER 13-1,,,00107013,,,,,"ARAPAHOE, LARAMIE-FOX HILLS, LOWER ARAPAHOE, UPPER ARAPAHOE",,,,,,SC00306513AA,1,1,ADAMS,,,,NE,NE,13,3.0 S,65.0 W,S,990,E,990,N,533717.0,4405064.9,39.794882,-104.606187,Spotted from section lines,5435.00,,02/15/2017 02:44:00 PM,https://dwr.state.co.us/Tools/GroundWater/GeophysicalLogs/3657,"(39.794882, -104.606187)"
DB-126  THUNDERBIRD 3,0428760,49809-F,,07/19/1999,",SP,R,G,C,CA,",,1355,"ARAPAHOE, DENVER, LOWER ARAPAHOE, LOWER DAWSON, UPPER ARAPAHOE",1345.00,876,1330,820,0810484,SC00706827BA,1,8,DOUGLAS,,,,NE,NW,27,7.0 S,68.0 W,S,2100,W,550,N,500764.0,4363245.3,39.418734,-104.991135,Spotted from section lines,6102.00,,06/28/2016 10:37:00 AM,https://dwr.state.co.us/Tools/GroundWater/GeophysicalLogs/5383,"(39.418734, -104.991135)"
TINDELL,0495221 ,58347-F,,10/03/2002,"G,SP,R",,1073,"ARAPAHOE, LARAMIE-FOX HILLS, LOWER ARAPAHOE, UPPER ARAPAHOE",1067.00,910,1067,,0815131,SC00606924DD,1,8,DOUGLAS,,,,SE,SE,24,6.0 S,69.0 W,S,960,E,500,S,495014.9,4373225.3,39.508647,-105.057997,Spotted from section lines,5565.00,,12/24/2002 12:00:00 AM,https://dwr.state.co.us/Tools/GroundWater/GeophysicalLogs/5604,"(39.508647, -105.057997)"
RALPH 1,,,04106009,,,,,"ARAPAHOE, DAWSON, DENVER, LARAMIE-FOX HILLS, LOWER ARAPAHOE, LOWER DAWSON, UPPER ARAPAHOE, UPPER DAWSON",,,,,,SC01106315CC,2,67,EL PASO,UPPER BIG SANDY,UPPER BIG SANDY,,SW,SW,15,11.0 S,63.0 W,S,660,W,660,S,548507.4,4326553.9,39.086765,-104.439146,Spotted from section lines,7025.00,,09/10/2013 03:06:00 PM,https://dwr.state.co.us/Tools/GroundWater/GeophysicalLogs/5118,"(39.086765, -104.439146)"
PINZENSHAM 1-22,,,,,,,,"ARAPAHOE, LOWER ARAPAHOE, UPPER ARAPAHOE",,,,,,SC00306222DD,1,1,ADAMS,KIOWA-BIJOU,NORTH KIOWA-BIJOU,,SE,SE,22,3.0 S,62.0 W,S,660,E,660,S,559608.6,4402378.7,39.769262,-104.304023,Spotted from section lines,5304.00,,09/28/2006 02:00:00 PM,https://dwr.state.co.us/Tools/GroundWater/GeophysicalLogs/3483,"(39.769262, -104.304023)"
BAR 15 RANCH DAW-#1,0481104A,235809-,,01/31/2002,"G,SP,R",,1491,"DENVER, LOWER DAWSON",1066.00,370,1066,,0811629,SC01006625DD DWR2,1,8,DOUGLAS,,,,SE,SE,25,10.0 S,66.0 W,S,230,E,1040,S,524237.5,4333138.8,39.147115,-104.719529,Spotted from section lines,7300.00,,12/23/2002 12:00:00 AM,https://dwr.state.co.us/Tools/GroundWater/GeophysicalLogs/5569,"(39.147115, -104.719529)"
FLADER 2,,,,,,,,LARAMIE-FOX HILLS,,,,,,SC00306002AC,1,1,ADAMS,KIOWA-BIJOU,NORTH KIOWA-BIJOU,,SW,NE,2,3.0 S,60.0 W,S,1980,E,1980,N,580097.8,4408356.0,39.821428,-104.064092,Spotted from section lines,4970.00,,09/28/2006 02:00:00 PM,https://dwr.state.co.us/Tools/GroundWater/GeophysicalLogs/3382,"(39.821428, -104.064092)"
SC00306525AC,0001331,24440-F,,,",G,SP,R,",,523,,,,,,0205473,SC00306525AC,1,1,ADAMS,,,,SW,NE,25,3.0 S,65.0 W,S,,,,,533420.0,4401557.9,39.763295,-104.609835,Spotted from quarters,5500.00,,03/25/2015 03:04:00 PM,https://dwr.state.co.us/Tools/GroundWater/GeophysicalLogs/3662,"(39.763295, -104.609835)"
SHELBY 4,,,,,,,,LOWER ARAPAHOE,,,,,,SC00106729AC,1,2,ADAMS,,,,SW,NE,29,1.0 S,67.0 W,S,1877,E,1980,N,507715.5,4420834.0,39.937594,-104.909698,Spotted from section lines,5159.00,,12/01/2006 01:34:00 PM,https://dwr.state.co.us/Tools/GroundWater/GeophysicalLogs/2800,"(39.937594, -104.909698)"
TODD CREEK METRO,,49680-F,,05/12/1998,",SP,G,R,",,1080,"ARAPAHOE, LARAMIE-FOX HILLS, LOWER ARAPAHOE",,,,,,SC00106715CC,1,2,ADAMS,,,,SW,SW,15,1.0 S,67.0 W,S,20,W,5,S,509884.1,4423067.6,39.957700,-104.884289,Spotted from section lines,5135.00,,,https://dwr.state.co.us/Tools/GroundWater/GeophysicalLogs/2768,"(39.9577, -104.884289)"
JOLLY 2A,,,,,,,,,,,,,,SC00305834BA,1,1,ADAMS,,,,NE,NW,34,3.0 S,58.0 W,S,,,,,597445.4,4400948.4,39.752886,-103.862528,Spotted from quarters,,,,https://dwr.state.co.us/Tools/GroundWater/GeophysicalLogs/3355,"(39.752886, -103.862528)"
SCHMIDT 1-34,,,00106470,,,,,LARAMIE-FOX HILLS,,,,,,SC00106134CC,1,1,ADAMS,KIOWA-BIJOU,NORTH KIOWA-BIJOU,,SW,SW,34,1.0 S,61.0 W,S,660,W,660,S,568027.5,4418630.0,39.915040,-104.204055,Spotted from section lines,5075.00,,06/16/2008 03:24:00 PM,https://dwr.state.co.us/Tools/GroundWater/GeophysicalLogs/2501,"(39.91504, -104.204055)"
CLARE,0525913 ,61475-F,,08/26/2004,"SP,G,R",,992,"ARAPAHOE, DENVER",1125.00,640,1125,,,SC01306432AB,2,10,EL PASO,UPPER BLACK SQUIRREL CREEK,UPPER BLACK SQUIRREL,,NW,NE,32,13.0 S,64.0 W,S,2824,W,282,N,536335.0,4303665.0,38.881101,-104.581098,GPS,6672.00,,05/19/2005 10:48:00 AM,https://dwr.state.co.us/Tools/GroundWater/GeophysicalLogs/13194,"(38.881101, -104.581098)"
VICKROY 41-2,,,,,,,,"ARAPAHOE, LOWER ARAPAHOE, UPPER ARAPAHOE",,,,,,SC00306302AA DWR2,1,1,ADAMS,KIOWA-BIJOU,NORTH KIOWA-BIJOU,,NE,NE,2,3.0 S,63.0 W,S,600,E,600,N,551567.1,4408342.1,39.823512,-104.397446,Spotted from section lines,5334.00,,09/28/2006 02:00:00 PM,https://dwr.state.co.us/Tools/GroundWater/GeophysicalLogs/3506,"(39.823512, -104.397446)"
CITY OF ARVADA,0505384A,59192-F,,10/16/2003,"SP,G,R",,545,"ARAPAHOE, DENVER",525.00,377,525,,,SC00306909DC,1,7,JEFFERSON,,,,SW,SE,9,3.0 S,69.0 W,S,,,,,490136.0,4405394.0,39.798458,-105.115230,GPS,5440.00,,05/23/2005 02:28:00 PM,https://dwr.state.co.us/Tools/GroundWater/GeophysicalLogs/13274,"(39.798458, -105.11523)"
1 MOCKELMAN,,,,,,,,"CHEYENNE SANDSTONE, DAKOTA SANDSTONE",,,,,,SC01304626DB,1,49,CHEYENNE,NORTHERN HIGH PLAINS,EAST CHEYENNE,,NW,SE,26,13.0 S,46.0 W,S,,,,,714585.6,4307262.6,38.888052,-102.525939,Spotted from quarters,4430.00,,11/30/2018 04:37:00 PM,https://dwr.state.co.us/Tools/GroundWater/GeophysicalLogs/152382,"(38.888052, -102.525939)"
CHAMP 117 AMOCO F,,,,,,,,"ARAPAHOE, LARAMIE-FOX HILLS, LOWER ARAPAHOE, UPPER ARAPAHOE",,,,,,SC00206611CC,1,2,ADAMS,,,,SW,SW,11,2.0 S,66.0 W,S,660,W,660,S,521350.7,4415274.4,39.887265,-104.750291,Spotted from section lines,5211.00,,09/28/2006 02:00:00 PM,https://dwr.state.co.us/Tools/GroundWater/GeophysicalLogs/3225,"(39.887265, -104.750291)"
AMOCO CORE HOLE 195,,,,,",SP,R,G,",,500,,,,,,,SC00406215CD,1,1,ARAPAHOE,KIOWA-BIJOU,NORTH KIOWA-BIJOU,,SE,SW,15,4.0 S,62.0 W,S,,,,,558751.8,4394347.6,39.696963,-104.314747,Spotted from quarters,5498.00,,,https://dwr.state.co.us/Tools/GroundWater/GeophysicalLogs/3829,"(39.696963, -104.314747)"
KPU H15,,,12307358,09/23/1971,,,7210,"LARAMIE SHALE, LARAMIE-FOX HILLS, PIERRE SHALE, UPPER PIERRE",7210.00,,,,,SB00806019BB,1,1,WELD,,,,NW,NW,19,8.0 N,60.0 W,S,,,,,572564.9,4500608.0,40.653150,-104.141673,GPS,4947.00,,10/19/2016 01:24:00 PM,https://dwr.state.co.us/Tools/GroundWater/GeophysicalLogs/150909,"(40.65315, -104.141673)"
LATIGO 4,,17665-F,,09/04/1975,",SP,R, C",,530,UPPER DAWSON,540.00,,,,,SC01206416BB,2,10,EL PASO,UPPER BLACK SQUIRREL CREEK,UPPER BLACK SQUIRREL,,NE,NW,16,12.0 S,64.0 W,S,2000,W,200,N,537727.8,4318227.7,39.012272,-104.564236,Spotted from section lines,7070.00,,08/22/2006 11:20:00 AM,https://dwr.state.co.us/Tools/GroundWater/GeophysicalLogs/49404,"(39.012272, -104.564236)"
LARRICK #2,,,,,,,,,,,,,,SB00405932DA,1,1,MORGAN,,,,NE,SE,32,4.0 N,59.0 W,S,,,,,584886.4,4457909.7,40.267361,-104.001658,Spotted from quarters,4456.00,,,https://dwr.state.co.us/Tools/GroundWater/GeophysicalLogs/2279,"(40.267361, -104.001658)"
WILLIAMS 3,,,,,,,,LARAMIE-FOX HILLS,,,,,,SC00206434CD,1,1,ADAMS,LOST CREEK,LOST CREEK,,SE,SW,34,2.0 S,64.0 W,S,1980,W,760,S,539474.6,4408732.4,39.827673,-104.538714,Spotted from section lines,5403.00,,09/28/2006 02:00:00 PM,https://dwr.state.co.us/Tools/GroundWater/GeophysicalLogs/3166,"(39.827673, -104.538714)"
ANDERSON 42-7,,,,,",SP,R,C,",,2143,"ARAPAHOE, DENVER, LARAMIE-FOX HILLS, LOWER ARAPAHOE, UPPER ARAPAHOE",,,,,,SC00506307AD,1,1,ARAPAHOE,KIOWA-BIJOU,,,SE,NE,7,5.0 S,63.0 W,S,660,E,1980,N,545019.9,4386943.9,39.631091,-104.475408,Spotted from section lines,5884.00,,09/28/2006 02:00:00 PM,https://dwr.state.co.us/Tools/GroundWater/GeophysicalLogs/4196,"(39.631091, -104.475408)"
ORCHARD HILLS R-1,0265902 ,30210-F,,12/05/1986,",G,R,SP,",,1500,"ARAPAHOE, DENVER, LOWER ARAPAHOE, UPPER ARAPAHOE",1500.00,917,1478,,0807137,SC00506715CA,1,8,ARAPAHOE,,,,SE,NW,15,5.0 S,67.0 W,S,2638,W,1497,N,510633.5,4385583.6,39.619955,-104.876116,Spotted from section lines,5680.00,,,https://dwr.state.co.us/Tools/GroundWater/GeophysicalLogs/4344,"(39.619955, -104.876116)"
CHRISTIE 22-5,,,00108388,,,,,"ARAPAHOE, LOWER ARAPAHOE, UPPER ARAPAHOE",,,,,,SC00106305BD,1,1,ADAMS,LOST CREEK,LOST CREEK,,SE,NW,5,1.0 S,63.0 W,S,1980,W,2497,N,545744.8,4427208.9,39.993828,-104.464151,Spotted from section lines,4975.00,,10/07/2015 02:42:00 PM,https://dwr.state.co.us/Tools/GroundWater/GeophysicalLogs/2522,"(39.993828, -104.464151)"
KALCEVIC 1,,,00506447,,",SP,R,C,",,1673,"ARAPAHOE, DENVER, LARAMIE-FOX HILLS, LOWER ARAPAHOE, UPPER ARAPAHOE",,,,,,SC00406312CC,1,1,ARAPAHOE,KIOWA-BIJOU,NORTH KIOWA-BIJOU,,SW,SW,12,4.0 S,63.0 W,S,660,W,660,S,551933.1,4395863.3,39.711058,-104.394156,Spotted from section lines,5502.00,,09/06/2018 05:49:00 PM,https://dwr.state.co.us/Tools/GroundWater/GeophysicalLogs/3874,"(39.711058, -104.394156)"
1 PRICE 12-24,,,,,,,,"CHEYENNE SANDSTONE, DAKOTA SANDSTONE",,,,,,SC01204324BC,1,49,CHEYENNE,NORTHERN HIGH PLAINS,EAST CHEYENNE,,SW,NW,24,12.0 S,43.0 W,S,,,,,743958.8,4320165.7,38.996524,-102.183041,Spotted from quarters,4090.00,,10/21/2016 03:56:00 PM,https://dwr.state.co.us/Tools/GroundWater/GeophysicalLogs/151017,"(38.996524, -102.183041)"
MIRRIAM 1,,,,,,,,"ARAPAHOE, LOWER ARAPAHOE, UPPER ARAPAHOE",,,,,,SC00106328AA,1,1,ADAMS,LOST CREEK,LOST CREEK,,NE,NE,28,1.0 S,63.0 W,S,660,E,660,N,548229.5,4421182.0,39.939390,-104.435501,Spotted from section lines,5088.00,,09/28/2006 02:00:00 PM,https://dwr.state.co.us/Tools/GroundWater/GeophysicalLogs/2547,"(39.93939, -104.435501)"
LINDE-LEE FARMS INC 1,,,08705800,,,,,LARAMIE-FOX HILLS,,,,,,SB00205908BD,1,1,MORGAN,KIOWA-BIJOU,NORTH KIOWA-BIJOU,,SE,NW,8,2.0 N,59.0 W,S,1915,W,1980,N,584192.3,4445416.9,40.154896,-104.011461,Spotted from section lines,4593.00,,07/16/2008 02:44:00 PM,https://dwr.state.co.us/Tools/GroundWater/GeophysicalLogs/1844,"(40.154896, -104.011461)"
AMOCO-UPRR 11-9,,,,,",SP,R,C,",,2500,"ARAPAHOE, DENVER, LARAMIE-FOX HILLS, LOWER ARAPAHOE, UPPER ARAPAHOE",,,,,,SC00606311DA,1,1,ELBERT,KIOWA-BIJOU,,,NE,SE,11,6.0 S,63.0 W,S,660,E,1980,S,551034.6,4376911.9,39.540366,-104.406093,Spotted from section lines,5904.00,,09/28/2006 02:00:00 PM,https://dwr.state.co.us/Tools/GroundWater/GeophysicalLogs/4535,"(39.540366, -104.406093)"
HARRIET W LUCKE 1,,,12307772,,,,,"ARAPAHOE, LARAMIE-FOX HILLS, LOWER ARAPAHOE, UPPER ARAPAHOE",,,,,,SB00106728CB,1,2,WELD,,,,NW,SW,28,1.0 N,67.0 W,S,660,W,1980,S,508318.3,4430005.1,40.020218,-104.902535,Spotted from section lines,5008.00,,06/16/2008 02:59:00 PM,https://dwr.state.co.us/Tools/GroundWater/GeophysicalLogs/1712,"(40.020218, -104.902535)"
CAMELOT POA,,75736-F,,08/19/2012,"<G,R,SP",,1596,"DAWSON, DENVER",1600.00,,,,,SC01206513CA,2,10,EL PASO,UPPER BLACK SQUIRREL CREEK,UPPER BLACK SQUIRREL,,NE,SW,13,12.0 S,65.0 W,S,2620,W,2510,S,533165.5,4317466.6,39.005599,-104.616976,Spotted from section lines,7340.00,,10/09/2012 02:58:00 PM,https://dwr.state.co.us/Tools/GroundWater/GeophysicalLogs/149991,"(39.005599, -104.616976)"
CHERRY CR VILLAGE 1,,,,,",SP,R,",,1400,"ARAPAHOE, DENVER, LOWER ARAPAHOE, UPPER ARAPAHOE",,,,,,SC00506710BB,1,8,ARAPAHOE,,,,NW,NW,10,5.0 S,67.0 W,S,,,,,510062.8,4387444.1,39.636723,-104.882742,Spotted from quarters,5640.00,,,https://dwr.state.co.us/Tools/GroundWater/GeophysicalLogs/4342,"(39.636723, -104.882742)"
MIDDLEMIST 1,,,,,,,,LARAMIE-FOX HILLS,,,,,,SC00205708CD,1,1,ADAMS,,,,SE,SW,8,2.0 S,57.0 W,S,1950,W,660,S,603313.1,4415873.0,39.886636,-103.791697,Spotted from section lines,4798.00,,09/28/2006 02:00:00 PM,https://dwr.state.co.us/Tools/GroundWater/GeophysicalLogs/2890,"(39.886636, -103.791697)"
BREDE,0388987,189295-,,,",G,",,900,,840.00,720,840,,,SC00106304AA,1,1,ADAMS,LOST CREEK,LOST CREEK,,NE,NE,4,1.0 S,63.0 W,S,150,E,150,N,548322.6,4427955.6,40.000415,-104.433898,Spotted from section lines,4985.00,,,https://dwr.state.co.us/Tools/GroundWater/GeophysicalLogs/2521,"(40.000415, -104.433898)"
PALMER 42-14,,,12310940,,,,,"LARAMIE-FOX HILLS, PIERRE SHALE, UPPER PIERRE",,,,,,SB00806714AD,1,3,WELD,,,,SE,NE,14,8.0 N,67.0 W,S,,,,,512496.0,4501410.0,40.663471,-104.852177,GPS,5282.00,,05/21/2019 06:46:00 PM,https://dwr.state.co.us/Tools/GroundWater/GeophysicalLogs/152890,"(40.663471, -104.852177)"
UPRR 42,,,12310199,,,,,LARAMIE-FOX HILLS,,,,,,SB00106721CD,1,2,WELD,,,,SE,SW,21,1.0 N,67.0 W,S,1980,W,780,S,508715.7,4431247.6,40.031413,-104.897854,Spotted from section lines,5024.00,,08/15/2017 12:45:00 PM,https://dwr.state.co.us/Tools/GroundWater/GeophysicalLogs/1701,"(40.031413, -104.897854)"
RAMSET-HEIR 41-23,,,,,",SP,R,C,",,2400,"ARAPAHOE, DENVER, LARAMIE-FOX HILLS, LOWER ARAPAHOE, UPPER ARAPAHOE",,,,,,SC00806123AA,1,1,ELBERT,KIOWA-BIJOU,,,NE,NE,23,8.0 S,61.0 W,S,680,E,640,N,570544.2,4355272.1,39.344013,-104.181363,Spotted from section lines,6006.00,,09/28/2006 02:00:00 PM,https://dwr.state.co.us/Tools/GroundWater/GeophysicalLogs/4923,"(39.344013, -104.181363)"
ECCV W&S L-11,,51681-F,,06/09/1999,"SP,R,G,Ca",,2328,"ARAPAHOE, DENVER, LARAMIE-FOX HILLS, LOWER ARAPAHOE, UPPER ARAPAHOE",,,,,,SC00506612BC DWR1,1,2,ARAPAHOE,,,,SW,NW,12,5.0 S,66.0 W,S,330,W,1790,N,522828.9,4387115.3,39.633512,-104.733982,Spotted from section lines,5810.00,,02/05/2004 12:00:00 AM,https://dwr.state.co.us/Tools/GroundWater/GeophysicalLogs/5685,"(39.633512, -104.733982)"
KRIEGER #2,,,,,",SP,R,C,",,1775,LARAMIE-FOX HILLS,,,,,,SB00406114BB,1,1,WELD,,,,NW,NW,14,4.0 N,61.0 W,S,,,,,569194.8,4463341.2,40.317735,-104.185601,Spotted from quarters,4475.00,,,https://dwr.state.co.us/Tools/GroundWater/GeophysicalLogs/2304,"(40.317735, -104.185601)"
UPRR AMOCO 15-13,,,,,",SP,R,C,G,D,Ca,",,7505,"ARAPAHOE, LARAMIE-FOX HILLS, LOWER ARAPAHOE, UPPER ARAPAHOE",,,,,,SC00706215CC,1,1,ELBERT,KIOWA-BIJOU,,,SW,SW,15,7.0 S,62.0 W,S,660,W,660,S,557878.9,4365265.3,39.434992,-104.327463,Spotted from section lines,5927.00,,09/28/2006 02:00:00 PM,https://dwr.state.co.us/Tools/GroundWater/GeophysicalLogs/4774,"(39.434992, -104.327463)"
AMOCO CORE HOLE 308,,,,,",SP,R,G,",,500,"DENVER, UPPER ARAPAHOE",,,,,,SC00306311CD,1,1,ADAMS,KIOWA-BIJOU,NORTH KIOWA-BIJOU,,SE,SW,11,3.0 S,63.0 W,S,,,,,550752.5,4405511.2,39.798057,-104.407182,Spotted from quarters,5387.00,,,https://dwr.state.co.us/Tools/GroundWater/GeophysicalLogs/3523,"(39.798057, -104.407182)"
MATHEWS 1,,,12307177,,,,,"LARAMIE-FOX HILLS, LOWER ARAPAHOE",,,,,,SB00106614AA,1,2,WELD,,,,NE,NE,14,1.0 N,66.0 W,S,805,E,690,N,522364.4,4434071.1,40.056595,-104.737796,Spotted from section lines,5117.00,,06/16/2008 02:11:00 PM,https://dwr.state.co.us/Tools/GroundWater/GeophysicalLogs/1616,"(40.056595, -104.737796)"
HART 1-34,,,,,",SP,R,C,",,1542,"ARAPAHOE, DENVER, LARAMIE-FOX HILLS, LOWER ARAPAHOE, UPPER ARAPAHOE",,,,,,SC00406234BA DWR1,1,1,ARAPAHOE,KIOWA-BIJOU,NORTH KIOWA-BIJOU,,NE,NW,34,4.0 S,62.0 W,S,1970,W,660,N,558733.5,4390712.3,39.664208,-104.315290,Spotted from section lines,5531.00,,09/28/2006 02:00:00 PM,https://dwr.state.co.us/Tools/GroundWater/GeophysicalLogs/3856,"(39.664208, -104.31529)"
TEXACO-NORDMAN 1,,,,,,,,"ARAPAHOE, LARAMIE-FOX HILLS, LOWER ARAPAHOE, UPPER ARAPAHOE",,,,,,SC00606402CC,1,1,ELBERT,,,,SW,SW,2,6.0 S,64.0 W,S,660,W,660,S,540430.5,4378090.9,39.551554,-104.529421,Spotted from section lines,5965.00,,12/01/2006 01:34:00 PM,https://dwr.state.co.us/Tools/GroundWater/GeophysicalLogs/4555,"(39.551554, -104.529421)"
REIFSCHNEIDER 1-10,,,,,,,,"CHEYENNE SANDSTONE, DAKOTA SANDSTONE",,,,,,SC02204610BB,2,67,PROWERS,,,,NW,NW,10,22.0 S,46.0 W,S,,,,,712496.1,4225922.5,38.156180,-102.574727,Spotted from quarters,3741.00,,01/30/2019 05:47:00 PM,https://dwr.state.co.us/Tools/GroundWater/GeophysicalLogs/152768,"(38.15618, -102.574727)"
WOLF CREEK GOV #2,,,09705015,,,,,,,,,,,SC00809023AB,5,38,PITKIN,,,,NW,NE,23,8.0 S,90.0 W,S,,,,,292668.0,4358253.0,39.348873,-107.406093,User supplied,9562.00,USGS 3DEP,02/19/2025 02:55:00 PM,https://dwr.state.co.us/Tools/GroundWater/GeophysicalLogs/157543,"(39.348873, -107.406093)"
PLUMBER 1,,,,,",SP,R,",,500,"ARAPAHOE, DENVER, UPPER ARAPAHOE",,,,,,SC00406807AA,1,8,DENVER,,,,NE,NE,7,4.0 S,68.0 W,S,,,,,496839.6,4397110.0,39.723868,-105.036887,Spotted from quarters,5330.00,,,https://dwr.state.co.us/Tools/GroundWater/GeophysicalLogs/4027,"(39.723868, -105.036887)"
ERRAMUSPE A-1,,,,,,,,"CHEYENNE SANDSTONE, DAKOTA SANDSTONE",,,,,,SC02004834AC,2,67,KIOWA,,,,SW,NE,34,20.0 S,48.0 W,S,,,,,694805.7,4238790.2,38.276059,-102.772955,Spotted from quarters,3945.00,,01/30/2019 03:00:00 PM,https://dwr.state.co.us/Tools/GroundWater/GeophysicalLogs/152697,"(38.276059, -102.772955)"
AMOCO 1,9002216,16819-F,,,",Ca,Po,SP,R,G,",,1055,"DENVER, UPPER ARAPAHOE",1060.00,,,,,SC00306532DA DWR1,1,2,ADAMS,,,,NE,SE,32,3.0 S,65.0 W,S,,,,,527362.4,4399567.5,39.745578,-104.680638,Spotted from quarters,5592.00,,,https://dwr.state.co.us/Tools/GroundWater/GeophysicalLogs/3666,"(39.745578, -104.680638)"
MAVERICK 1-5,,,,,,,,"CHEYENNE SANDSTONE, DAKOTA SANDSTONE",,,,,,SC01904105CC,2,67,KIOWA,,,,SW,SW,5,19.0 S,41.0 W,S,,,,,,,,,Unable to spot,3895.00,,01/30/2019 01:31:00 PM,https://dwr.state.co.us/Tools/GroundWater/GeophysicalLogs/152625,
CARTER UNIT 1,,,,,,,,"ARAPAHOE, LARAMIE-FOX HILLS, LOWER ARAPAHOE, UPPER ARAPAHOE",,,,,,SB00206632AC,1,2,WELD,,,,SW,NE,32,2.0 N,66.0 W,S,1500,E,1455,N,517299.5,4438635.5,40.097835,-104.797048,Spotted from section lines,4909.00,,09/28/2006 02:00:00 PM,https://dwr.state.co.us/Tools/GroundWater/GeophysicalLogs/2051,"(40.097835, -104.797048)"
PATTERSON,0478350 ,56319-F,,11/28/2001,"G,SP,R",,1120,"ARAPAHOE, DENVER, LOWER ARAPAHOE, UPPER ARAPAHOE",1120.00,640,1120,,,SC01206335BB,2,10,EL PASO,UPPER BLACK SQUIRREL CREEK,UPPER BLACK SQUIRREL,,NW,NW,35,12.0 S,63.0 W,S,200,W,600,N,550039.6,4313234.8,38.966662,-104.422399,Spotted from section lines,6500.00,,12/24/2002 12:00:00 AM,https://dwr.state.co.us/Tools/GroundWater/GeophysicalLogs/5585,"(38.966662, -104.422399)"
CHRIS WAILES 1,,,,,,,,"ARAPAHOE, LOWER ARAPAHOE, UPPER ARAPAHOE",,,,,,SC00206304DD,1,1,ADAMS,LOST CREEK,LOST CREEK,,SE,SE,4,2.0 S,63.0 W,S,660,E,660,S,548290.2,4416740.9,39.899376,-104.435116,Spotted from section lines,5170.00,,09/28/2006 02:00:00 PM,https://dwr.state.co.us/Tools/GroundWater/GeophysicalLogs/3065,"(39.899376, -104.435116)"
SHARPE 1-10,,,,,,,,LARAMIE-FOX HILLS,,,,,,SC00106810DD DWR1,1,2,ADAMS,,,,SE,SE,10,1.0 S,68.0 W,S,610,E,906,S,501668.2,4424937.3,39.974595,-104.980477,Spotted from section lines,5167.00,,12/01/2006 01:34:00 PM,https://dwr.state.co.us/Tools/GroundWater/GeophysicalLogs/2826,"(39.974595, -104.980477)"
UPRR 53 PAN AM F-1,,,,,,,,LARAMIE-FOX HILLS,,,,,,SB00206501CC,1,1,WELD,,,,SW,SW,1,2.0 N,65.0 W,S,,,,,532412.9,4445833.3,40.162241,-104.619387,Spotted from quarters,4843.00,,,https://dwr.state.co.us/Tools/GroundWater/GeophysicalLogs/1965,"(40.162241, -104.619387)"
STATE KOENIG 1-B,,,,,,,,"ARAPAHOE, LOWER ARAPAHOE, UPPER ARAPAHOE",,,,,,SC00406224CA,1,1,ARAPAHOE,KIOWA-BIJOU,NORTH KIOWA-BIJOU,,NE,SW,24,4.0 S,62.0 W,S,1980,W,1980,S,561955.8,4393155.8,39.686000,-104.277490,Spotted from section lines,5419.00,,09/28/2006 02:00:00 PM,https://dwr.state.co.us/Tools/GroundWater/GeophysicalLogs/3846,"(39.686, -104.27749)"
FT.LUPTON DAIRY,0309872 ,36316-F,,,",G,R,SP,",,1020,"LARAMIE-FOX HILLS, LOWER ARAPAHOE",1045.00,745,1045,,0209293,SB00106616DA DWR2,1,2,WELD,,,,NE,SE,16,1.0 N,66.0 W,S,125,E,1690,S,519351.0,4433176.0,40.048606,-104.773150,Spotted from section lines,5030.00,,,https://dwr.state.co.us/Tools/GroundWater/GeophysicalLogs/1619,"(40.048606, -104.77315)"
BOX ELDER H,,,,,,,,LARAMIE-FOX HILLS,,,,,,SC00106526CD,1,1,ADAMS,,,,SE,SW,26,1.0 S,65.0 W,S,1500,W,1080,S,531182.0,4420186.3,39.931217,-104.635075,Spotted from section lines,5181.00,,09/28/2006 02:00:00 PM,https://dwr.state.co.us/Tools/GroundWater/GeophysicalLogs/2653,"(39.931217, -104.635075)"
AMOCO CORE HOLE 217,,,,,",SP,R,G,",,500,,,,,,,SC00406426DD,1,1,ARAPAHOE,,,,SE,SE,26,4.0 S,64.0 W,S,,,,,541870.7,4390985.0,39.667661,-104.511849,Spotted from quarters,5825.00,,,https://dwr.state.co.us/Tools/GroundWater/GeophysicalLogs/3962,"(39.667661, -104.511849)"
